{
  "_meta": {
    "title": "Demir Yolcusu — TCDD Referans Verisi",
    "source": "TCDD API (ebilet.tcddtasimacilik.gov.tr) + resmi TCDD web sitesi",
    "version": "2.0",
    "date": "2026-02",
    "description": "Tüm scope: 385 durak, 9 YHT hattı, 15 ana hat treni, 7 bölge",
    "stats": {
      "total_stations": 385,
      "total_yht_routes": 9,
      "total_mainline_routes": 15,
      "total_regions": 7
    }
  },
  "regions": {
    "ege": {
      "name": "Ege",
      "difficulty": "easy",
      "theme": "summer",
      "description": "Zeytinlikler, ılık deniz, antik kentler. Oyunun başlangıç bölgesi.",
      "station_count": 76
    },
    "marmara": {
      "name": "Marmara",
      "difficulty": "medium",
      "theme": "spring_autumn",
      "description": "Modern şehirler, yoğun trafik, endüstriyel bölge.",
      "station_count": 64
    },
    "ic_anadolu": {
      "name": "İç Anadolu",
      "difficulty": "hard",
      "theme": "winter",
      "description": "Bozkır, buğday tarlaları, Selçuklu mirası, sert kışlar.",
      "station_count": 85
    },
    "akdeniz": {
      "name": "Akdeniz",
      "difficulty": "medium",
      "theme": "summer",
      "description": "Narenciye bahçeleri, sıcak iklim, kıyı şehirleri.",
      "station_count": 25
    },
    "karadeniz": {
      "name": "Karadeniz",
      "difficulty": "hard",
      "theme": "rainy_green",
      "description": "Yeşil dağlar, çay tarlaları, tüneller, yağmurlu hava.",
      "station_count": 45
    },
    "dogu_anadolu": {
      "name": "Doğu Anadolu",
      "difficulty": "expert",
      "theme": "harsh_winter",
      "description": "Yüksek dağlar, sert kışlar, epik manzaralar, Doğu Ekspresi.",
      "station_count": 58
    },
    "guneydogu": {
      "name": "Güneydoğu Anadolu",
      "difficulty": "expert",
      "theme": "hot_desert",
      "description": "Mezopotamya toprakları, sıcak yaz, tarihi şehirler.",
      "station_count": 16
    }
  },
  "stations": [
    {
      "id": 753,
      "name": "ADANA",
      "city": "ADANA",
      "city_id": 1,
      "district": "SEYHAN",
      "region": "akdeniz",
      "lat": 36.9994,
      "lng": 35.3206,
      "alt": 23.3,
      "code": "6503",
      "size": "large",
      "popularity": 0.9,
      "ticket_sale": true,
      "passenger_drop": true
    },
    {
      "id": 762,
      "name": "BELEMEDİK",
      "city": "ADANA",
      "city_id": 1,
      "district": "",
      "region": "akdeniz",
      "lat": 37.3589,
      "lng": 34.9147,
      "alt": 700.7,
      "code": "6523",
      "size": "large",
      "popularity": 0.9,
      "ticket_sale": true,
      "passenger_drop": true
    },
    {
      "id": 765,
      "name": "CEYHAN",
      "city": "ADANA",
      "city_id": 1,
      "district": "CEYHAN",
      "region": "akdeniz",
      "lat": 37.0181,
      "lng": 5.8172,
      "alt": 0.0,
      "code": "6529",
      "size": "large",
      "popularity": 0.9,
      "ticket_sale": true,
      "passenger_drop": true
    },
    {
      "id": 772,
      "name": "DURAK",
      "city": "ADANA",
      "city_id": 1,
      "district": "",
      "region": "akdeniz",
      "lat": 37.12,
      "lng": 35.0006,
      "alt": 141.6,
      "code": "6540",
      "size": "large",
      "popularity": 0.9,
      "ticket_sale": true,
      "passenger_drop": true
    },
    {
      "id": 781,
      "name": "HACIKIRI",
      "city": "ADANA",
      "city_id": 1,
      "district": "",
      "region": "akdeniz",
      "lat": 37.2511,
      "lng": 34.9806,
      "alt": 593.0,
      "code": "6552",
      "size": "large",
      "popularity": 0.9,
      "ticket_sale": true,
      "passenger_drop": true
    },
    {
      "id": 789,
      "name": "KARAİSALIBUCAĞI",
      "city": "ADANA",
      "city_id": 1,
      "district": "",
      "region": "akdeniz",
      "lat": 37.1931,
      "lng": 34.9425,
      "alt": 389.6,
      "code": "6567",
      "size": "large",
      "popularity": 0.9,
      "ticket_sale": true,
      "passenger_drop": true
    },
    {
      "id": 1396,
      "name": "KELEBEK",
      "city": "ADANA",
      "city_id": 1,
      "district": "",
      "region": "akdeniz",
      "lat": 37.1607,
      "lng": 34.9378,
      "alt": 305.0,
      "code": "6573",
      "size": "small",
      "popularity": 0.3,
      "ticket_sale": false,
      "passenger_drop": true
    },
    {
      "id": 810,
      "name": "POZANTI",
      "city": "ADANA",
      "city_id": 1,
      "district": "",
      "region": "akdeniz",
      "lat": 37.4244,
      "lng": 34.8683,
      "alt": 819.0,
      "code": "6601",
      "size": "large",
      "popularity": 0.9,
      "ticket_sale": true,
      "passenger_drop": true
    },
    {
      "id": 802,
      "name": "YAKAPINAR",
      "city": "ADANA",
      "city_id": 1,
      "district": "",
      "region": "akdeniz",
      "lat": 36.9675,
      "lng": 35.6122,
      "alt": 52.5,
      "code": "6589",
      "size": "large",
      "popularity": 0.9,
      "ticket_sale": true,
      "passenger_drop": true
    },
    {
      "id": 786,
      "name": "İNCİRLİK",
      "city": "ADANA",
      "city_id": 1,
      "district": "",
      "region": "akdeniz",
      "lat": 36.9847,
      "lng": 35.4336,
      "alt": 50.6,
      "code": "6559",
      "size": "large",
      "popularity": 0.9,
      "ticket_sale": true,
      "passenger_drop": true
    },
    {
      "id": 836,
      "name": "ŞEHİTLİK",
      "city": "ADANA",
      "city_id": 1,
      "district": "",
      "region": "akdeniz",
      "lat": 36.9975,
      "lng": 35.2433,
      "alt": 24.7,
      "code": "6611",
      "size": "large",
      "popularity": 0.9,
      "ticket_sale": true,
      "passenger_drop": true
    },
    {
      "id": 886,
      "name": "BURDUR",
      "city": "BURDUR",
      "city_id": 15,
      "district": "MERKEZ",
      "region": "akdeniz",
      "lat": 37.7231,
      "lng": 30.2814,
      "alt": 942.7,
      "code": "7539",
      "size": "large",
      "popularity": 0.9,
      "ticket_sale": false,
      "passenger_drop": true
    },
    {
      "id": 771,
      "name": "DÖRTYOL",
      "city": "HATAY",
      "city_id": 31,
      "district": "",
      "region": "akdeniz",
      "lat": 36.8267,
      "lng": 36.1958,
      "alt": 25.0,
      "code": "6539",
      "size": "large",
      "popularity": 0.9,
      "ticket_sale": true,
      "passenger_drop": true
    },
    {
      "id": 775,
      "name": "ERZİN",
      "city": "HATAY",
      "city_id": 31,
      "district": "",
      "region": "akdeniz",
      "lat": 36.9744,
      "lng": 36.1303,
      "alt": 49.5,
      "code": "6543",
      "size": "large",
      "popularity": 0.9,
      "ticket_sale": true,
      "passenger_drop": true
    },
    {
      "id": 809,
      "name": "PAYAS",
      "city": "HATAY",
      "city_id": 31,
      "district": "",
      "region": "akdeniz",
      "lat": 36.7669,
      "lng": 36.2094,
      "alt": 19.3,
      "code": "6597",
      "size": "large",
      "popularity": 0.9,
      "ticket_sale": true,
      "passenger_drop": true
    },
    {
      "id": 811,
      "name": "SARISEKİ",
      "city": "HATAY",
      "city_id": 31,
      "district": "",
      "region": "akdeniz",
      "lat": 36.7094,
      "lng": 36.1969,
      "alt": 14.7,
      "code": "6604",
      "size": "large",
      "popularity": 0.9,
      "ticket_sale": true,
      "passenger_drop": false
    },
    {
      "id": 787,
      "name": "İSKENDERUN",
      "city": "HATAY",
      "city_id": 31,
      "district": "İSKENDERUN",
      "region": "akdeniz",
      "lat": 36.5872,
      "lng": 36.1808,
      "alt": 4.0,
      "code": "6560",
      "size": "large",
      "popularity": 0.9,
      "ticket_sale": true,
      "passenger_drop": true
    },
    {
      "id": 933,
      "name": "GÜMÜŞGÜN",
      "city": "ISPARTA",
      "city_id": 32,
      "district": "",
      "region": "akdeniz",
      "lat": 37.8933,
      "lng": 30.4125,
      "alt": 927.8,
      "code": "7581",
      "size": "large",
      "popularity": 0.9,
      "ticket_sale": true,
      "passenger_drop": true
    },
    {
      "id": 920,
      "name": "ISPARTA",
      "city": "ISPARTA",
      "city_id": 32,
      "district": "MERKEZ",
      "region": "akdeniz",
      "lat": 37.7717,
      "lng": 30.5628,
      "alt": 1025.5,
      "code": "7589",
      "size": "large",
      "popularity": 0.9,
      "ticket_sale": true,
      "passenger_drop": true
    },
    {
      "id": 1126,
      "name": "KEÇİBORLU",
      "city": "ISPARTA",
      "city_id": 32,
      "district": "",
      "region": "akdeniz",
      "lat": 37.9333,
      "lng": 30.3,
      "alt": 989.4,
      "code": "7604",
      "size": "large",
      "popularity": 0.9,
      "ticket_sale": true,
      "passenger_drop": true
    },
    {
      "id": 820,
      "name": "TAŞKENT",
      "city": "MERSİN",
      "city_id": 33,
      "district": "",
      "region": "akdeniz",
      "lat": 36.8653,
      "lng": 34.7742,
      "alt": 25.0,
      "code": "6619",
      "size": "large",
      "popularity": 0.9,
      "ticket_sale": true,
      "passenger_drop": true
    },
    {
      "id": 1077,
      "name": "YENİCE",
      "city": "MERSİN",
      "city_id": 33,
      "district": "TARSUS",
      "region": "akdeniz",
      "lat": 36.9758,
      "lng": 35.0486,
      "alt": 34.0,
      "code": "6633",
      "size": "large",
      "popularity": 0.9,
      "ticket_sale": true,
      "passenger_drop": true
    },
    {
      "id": 829,
      "name": "GÜNYAZI",
      "city": "OSMANİYE",
      "city_id": 80,
      "district": "",
      "region": "akdeniz",
      "lat": 37.0581,
      "lng": 35.9514,
      "alt": 33.7,
      "code": "6629",
      "size": "large",
      "popularity": 0.9,
      "ticket_sale": true,
      "passenger_drop": false
    },
    {
      "id": 1388,
      "name": "OSMANİYE",
      "city": "OSMANİYE",
      "city_id": 80,
      "district": "",
      "region": "akdeniz",
      "lat": 37.0796,
      "lng": 36.237,
      "alt": 113.9,
      "code": "6596",
      "size": "small",
      "popularity": 0.3,
      "ticket_sale": false,
      "passenger_drop": true
    },
    {
      "id": 825,
      "name": "TOPRAKKALE",
      "city": "OSMANİYE",
      "city_id": 80,
      "district": "",
      "region": "akdeniz",
      "lat": 37.0669,
      "lng": 36.1456,
      "alt": 65.4,
      "code": "6624",
      "size": "large",
      "popularity": 0.9,
      "ticket_sale": true,
      "passenger_drop": true
    },
    {
      "id": 1122,
      "name": "GENÇ",
      "city": "BİNGÖL",
      "city_id": 12,
      "district": "GENÇ",
      "region": "dogu_anadolu",
      "lat": 38.7525,
      "lng": 40.5569,
      "alt": 1002.4,
      "code": "5537",
      "size": "large",
      "popularity": 0.9,
      "ticket_sale": true,
      "passenger_drop": true
    },
    {
      "id": 1400,
      "name": "KEPÇELİ",
      "city": "BİNGÖL",
      "city_id": 12,
      "district": "GENÇ",
      "region": "dogu_anadolu",
      "lat": 38.8253,
      "lng": 40.7178,
      "alt": 1172.8,
      "code": "5536",
      "size": "small",
      "popularity": 0.3,
      "ticket_sale": false,
      "passenger_drop": true
    },
    {
      "id": 1309,
      "name": "YAMANLAR",
      "city": "BİNGÖL",
      "city_id": 12,
      "district": "",
      "region": "dogu_anadolu",
      "lat": 38.8104,
      "lng": 41.0565,
      "alt": 1234.7,
      "code": "5561",
      "size": "large",
      "popularity": 0.9,
      "ticket_sale": false,
      "passenger_drop": false
    },
    {
      "id": 711,
      "name": "RAHOVA",
      "city": "BİTLİS",
      "city_id": 13,
      "district": "",
      "region": "dogu_anadolu",
      "lat": 38.5056,
      "lng": 42.2092,
      "alt": 1787.4,
      "code": "5621",
      "size": "large",
      "popularity": 0.9,
      "ticket_sale": true,
      "passenger_drop": true
    },
    {
      "id": 712,
      "name": "TATVAN GAR",
      "city": "BİTLİS",
      "city_id": 13,
      "district": "TATVAN",
      "region": "dogu_anadolu",
      "lat": 38.5081,
      "lng": 42.2758,
      "alt": 1680.9,
      "code": "5623",
      "size": "large",
      "popularity": 0.9,
      "ticket_sale": true,
      "passenger_drop": true
    },
    {
      "id": 1399,
      "name": "AKBULUT",
      "city": "ELAZIĞ",
      "city_id": 23,
      "district": "",
      "region": "dogu_anadolu",
      "lat": 38.7364,
      "lng": 40.2892,
      "alt": 1015.1,
      "code": "5594",
      "size": "small",
      "popularity": 0.3,
      "ticket_sale": false,
      "passenger_drop": true
    },
    {
      "id": 1398,
      "name": "ARINDIK",
      "city": "ELAZIĞ",
      "city_id": 23,
      "district": "",
      "region": "dogu_anadolu",
      "lat": 38.7364,
      "lng": 40.2892,
      "alt": 1015.1,
      "code": "5513",
      "size": "small",
      "popularity": 0.3,
      "ticket_sale": false,
      "passenger_drop": true
    },
    {
      "id": 632,
      "name": "BASKİL",
      "city": "ELAZIĞ",
      "city_id": 23,
      "district": "",
      "region": "dogu_anadolu",
      "lat": 38.5658,
      "lng": 38.8272,
      "alt": 1209.1,
      "code": "5505",
      "size": "large",
      "popularity": 0.9,
      "ticket_sale": true,
      "passenger_drop": true
    },
    {
      "id": 656,
      "name": "BEYHAN",
      "city": "ELAZIĞ",
      "city_id": 23,
      "district": "",
      "region": "dogu_anadolu",
      "lat": 38.7336,
      "lng": 40.1186,
      "alt": 913.5,
      "code": "5511",
      "size": "large",
      "popularity": 0.9,
      "ticket_sale": true,
      "passenger_drop": true
    },
    {
      "id": 647,
      "name": "ELAZIĞ",
      "city": "ELAZIĞ",
      "city_id": 23,
      "district": "MERKEZ",
      "region": "dogu_anadolu",
      "lat": 38.6658,
      "lng": 39.2239,
      "alt": 1029.8,
      "code": "5527",
      "size": "large",
      "popularity": 0.9,
      "ticket_sale": true,
      "passenger_drop": true
    },
    {
      "id": 655,
      "name": "GEZİN",
      "city": "ELAZIĞ",
      "city_id": 23,
      "district": "",
      "region": "dogu_anadolu",
      "lat": 38.4961,
      "lng": 39.5194,
      "alt": 1252.0,
      "code": "5539",
      "size": "large",
      "popularity": 0.9,
      "ticket_sale": true,
      "passenger_drop": true
    },
    {
      "id": 636,
      "name": "KUŞSARAYI",
      "city": "ELAZIĞ",
      "city_id": 23,
      "district": "",
      "region": "dogu_anadolu",
      "lat": 38.4536,
      "lng": 38.6817,
      "alt": 819.5,
      "code": "5509",
      "size": "large",
      "popularity": 0.9,
      "ticket_sale": true,
      "passenger_drop": true
    },
    {
      "id": 673,
      "name": "KÜRK",
      "city": "ELAZIĞ",
      "city_id": 23,
      "district": "",
      "region": "dogu_anadolu",
      "lat": 38.4625,
      "lng": 39.2739,
      "alt": 1258.2,
      "code": "5572",
      "size": "large",
      "popularity": 0.9,
      "ticket_sale": true,
      "passenger_drop": true
    },
    {
      "id": 675,
      "name": "MADEN",
      "city": "ELAZIĞ",
      "city_id": 23,
      "district": "",
      "region": "dogu_anadolu",
      "lat": 38.4022,
      "lng": 39.6681,
      "alt": 1021.8,
      "code": "5574",
      "size": "large",
      "popularity": 0.9,
      "ticket_sale": true,
      "passenger_drop": true
    },
    {
      "id": 671,
      "name": "MURATBAĞI",
      "city": "ELAZIĞ",
      "city_id": 23,
      "district": "",
      "region": "dogu_anadolu",
      "lat": 38.6539,
      "lng": 39.7789,
      "alt": 851.0,
      "code": "5570",
      "size": "large",
      "popularity": 0.9,
      "ticket_sale": true,
      "passenger_drop": false
    },
    {
      "id": 686,
      "name": "PALU",
      "city": "ELAZIĞ",
      "city_id": 23,
      "district": "PALU",
      "region": "dogu_anadolu",
      "lat": 38.6917,
      "lng": 39.9269,
      "alt": 870.7,
      "code": "5588",
      "size": "large",
      "popularity": 0.9,
      "ticket_sale": true,
      "passenger_drop": true
    },
    {
      "id": 687,
      "name": "PINARLI",
      "city": "ELAZIĞ",
      "city_id": 23,
      "district": "",
      "region": "dogu_anadolu",
      "lat": 38.4739,
      "lng": 38.7761,
      "alt": 986.0,
      "code": "5590",
      "size": "large",
      "popularity": 0.9,
      "ticket_sale": true,
      "passenger_drop": true
    },
    {
      "id": 706,
      "name": "ULUOVA",
      "city": "ELAZIĞ",
      "city_id": 23,
      "district": "",
      "region": "dogu_anadolu",
      "lat": 38.4931,
      "lng": 39.2017,
      "alt": 1023.7,
      "code": "5613",
      "size": "large",
      "popularity": 0.9,
      "ticket_sale": true,
      "passenger_drop": true
    },
    {
      "id": 707,
      "name": "YOLÇATI",
      "city": "ELAZIĞ",
      "city_id": 23,
      "district": "",
      "region": "dogu_anadolu",
      "lat": 38.5431,
      "lng": 39.0358,
      "alt": 1227.0,
      "code": "5616",
      "size": "large",
      "popularity": 0.9,
      "ticket_sale": true,
      "passenger_drop": true
    },
    {
      "id": 708,
      "name": "YURT",
      "city": "ELAZIĞ",
      "city_id": 23,
      "district": "",
      "region": "dogu_anadolu",
      "lat": 38.6333,
      "lng": 39.3761,
      "alt": 857.6,
      "code": "5617",
      "size": "large",
      "popularity": 0.9,
      "ticket_sale": true,
      "passenger_drop": true
    },
    {
      "id": 658,
      "name": "ÇAĞLAR",
      "city": "ELAZIĞ",
      "city_id": 23,
      "district": "",
      "region": "dogu_anadolu",
      "lat": 38.5892,
      "lng": 39.3628,
      "alt": 850.4,
      "code": "5514",
      "size": "large",
      "popularity": 0.9,
      "ticket_sale": true,
      "passenger_drop": true
    },
    {
      "id": 719,
      "name": "ŞEFKAT",
      "city": "ELAZIĞ",
      "city_id": 23,
      "district": "",
      "region": "dogu_anadolu",
      "lat": 38.5742,
      "lng": 38.8997,
      "alt": 1421.5,
      "code": "5605",
      "size": "large",
      "popularity": 0.9,
      "ticket_sale": true,
      "passenger_drop": true
    },
    {
      "id": 463,
      "name": "AŞKALE",
      "city": "ERZURUM",
      "city_id": 25,
      "district": "",
      "region": "dogu_anadolu",
      "lat": 39.9225,
      "lng": 40.6839,
      "alt": 1671.5,
      "code": "4509",
      "size": "large",
      "popularity": 0.9,
      "ticket_sale": true,
      "passenger_drop": true
    },
    {
      "id": 498,
      "name": "ERZURUM",
      "city": "ERZURUM",
      "city_id": 25,
      "district": "YAKUTİYE",
      "region": "dogu_anadolu",
      "lat": 39.9172,
      "lng": 41.2694,
      "alt": 1851.4,
      "code": "4552",
      "size": "large",
      "popularity": 0.9,
      "ticket_sale": true,
      "passenger_drop": true
    },
    {
      "id": 515,
      "name": "HASANKALE",
      "city": "ERZURUM",
      "city_id": 25,
      "district": "",
      "region": "dogu_anadolu",
      "lat": 39.9781,
      "lng": 41.6836,
      "alt": 1671.5,
      "code": "4573",
      "size": "large",
      "popularity": 0.9,
      "ticket_sale": true,
      "passenger_drop": true
    },
    {
      "id": 1153,
      "name": "HORASAN",
      "city": "ERZURUM",
      "city_id": 25,
      "district": "",
      "region": "dogu_anadolu",
      "lat": 40.0406,
      "lng": 42.1611,
      "alt": 1562.6,
      "code": "4578",
      "size": "large",
      "popularity": 0.9,
      "ticket_sale": true,
      "passenger_drop": true
    },
    {
      "id": 543,
      "name": "ILICA",
      "city": "ERZURUM",
      "city_id": 25,
      "district": "",
      "region": "dogu_anadolu",
      "lat": 39.9503,
      "lng": 41.1053,
      "alt": 1757.8,
      "code": "4586",
      "size": "large",
      "popularity": 0.9,
      "ticket_sale": true,
      "passenger_drop": true
    },
    {
      "id": 522,
      "name": "KANDİLLİ",
      "city": "ERZURUM",
      "city_id": 25,
      "district": "",
      "region": "dogu_anadolu",
      "lat": 39.9119,
      "lng": 40.8411,
      "alt": 1708.1,
      "code": "4584",
      "size": "large",
      "popularity": 0.9,
      "ticket_sale": true,
      "passenger_drop": true
    },
    {
      "id": 528,
      "name": "KARASU",
      "city": "ERZURUM",
      "city_id": 25,
      "district": "",
      "region": "dogu_anadolu",
      "lat": 39.9322,
      "lng": 40.3522,
      "alt": 1550.6,
      "code": "4590",
      "size": "large",
      "popularity": 0.9,
      "ticket_sale": true,
      "passenger_drop": true
    },
    {
      "id": 562,
      "name": "KÖPRÜKÖY",
      "city": "ERZURUM",
      "city_id": 25,
      "district": "",
      "region": "dogu_anadolu",
      "lat": 39.9703,
      "lng": 41.8722,
      "alt": 1609.7,
      "code": "4612",
      "size": "large",
      "popularity": 0.9,
      "ticket_sale": true,
      "passenger_drop": true
    },
    {
      "id": 554,
      "name": "PALANDÖKEN",
      "city": "ERZURUM",
      "city_id": 25,
      "district": "",
      "region": "dogu_anadolu",
      "lat": 39.9119,
      "lng": 41.1864,
      "alt": 1788.9,
      "code": "4624",
      "size": "large",
      "popularity": 0.9,
      "ticket_sale": true,
      "passenger_drop": true
    },
    {
      "id": 1059,
      "name": "ALP",
      "city": "ERZİNCAN",
      "city_id": 24,
      "district": "",
      "region": "dogu_anadolu",
      "lat": 39.6181,
      "lng": 30.1983,
      "alt": 1008.5,
      "code": "4502",
      "size": "large",
      "popularity": 0.9,
      "ticket_sale": true,
      "passenger_drop": true
    },
    {
      "id": 465,
      "name": "BAĞIŞTAŞ",
      "city": "ERZİNCAN",
      "city_id": 24,
      "district": "",
      "region": "dogu_anadolu",
      "lat": 39.4414,
      "lng": 38.4678,
      "alt": 0.0,
      "code": "4511",
      "size": "large",
      "popularity": 0.9,
      "ticket_sale": true,
      "passenger_drop": true
    },
    {
      "id": 493,
      "name": "ERBAŞ",
      "city": "ERZİNCAN",
      "city_id": 24,
      "district": "",
      "region": "dogu_anadolu",
      "lat": 39.9153,
      "lng": 40.2033,
      "alt": 1481.9,
      "code": "4547",
      "size": "large",
      "popularity": 0.9,
      "ticket_sale": true,
      "passenger_drop": true
    },
    {
      "id": 1152,
      "name": "ERZİNCAN",
      "city": "ERZİNCAN",
      "city_id": 24,
      "district": "MERKEZ",
      "region": "dogu_anadolu",
      "lat": 39.7336,
      "lng": 39.4933,
      "alt": 1184.6,
      "code": "4550",
      "size": "large",
      "popularity": 0.9,
      "ticket_sale": true,
      "passenger_drop": true
    },
    {
      "id": 495,
      "name": "ERİÇ",
      "city": "ERZİNCAN",
      "city_id": 24,
      "district": "",
      "region": "dogu_anadolu",
      "lat": 39.5717,
      "lng": 38.8714,
      "alt": 980.8,
      "code": "4548",
      "size": "large",
      "popularity": 0.9,
      "ticket_sale": true,
      "passenger_drop": true
    },
    {
      "id": 509,
      "name": "GÜLLÜBAĞ",
      "city": "ERZİNCAN",
      "city_id": 24,
      "district": "",
      "region": "dogu_anadolu",
      "lat": 39.5136,
      "lng": 38.7444,
      "alt": 942.4,
      "code": "4566",
      "size": "large",
      "popularity": 0.9,
      "ticket_sale": true,
      "passenger_drop": true
    },
    {
      "id": 535,
      "name": "KEMAH",
      "city": "ERZİNCAN",
      "city_id": 24,
      "district": "KEMAH",
      "region": "dogu_anadolu",
      "lat": 39.6044,
      "lng": 39.0336,
      "alt": 1037.2,
      "code": "4599",
      "size": "large",
      "popularity": 0.9,
      "ticket_sale": true,
      "passenger_drop": true
    },
    {
      "id": 479,
      "name": "KEMALİYE ÇALTI",
      "city": "ERZİNCAN",
      "city_id": 24,
      "district": "",
      "region": "dogu_anadolu",
      "lat": 39.3725,
      "lng": 38.3617,
      "alt": 847.6,
      "code": "4527",
      "size": "large",
      "popularity": 0.9,
      "ticket_sale": true,
      "passenger_drop": true
    },
    {
      "id": 1154,
      "name": "MERCAN",
      "city": "ERZİNCAN",
      "city_id": 24,
      "district": "",
      "region": "dogu_anadolu",
      "lat": 39.7492,
      "lng": 40.2583,
      "alt": 1400.3,
      "code": "4656",
      "size": "large",
      "popularity": 0.9,
      "ticket_sale": true,
      "passenger_drop": true
    },
    {
      "id": 572,
      "name": "TANYERİ",
      "city": "ERZİNCAN",
      "city_id": 24,
      "district": "",
      "region": "dogu_anadolu",
      "lat": 39.6106,
      "lng": 39.8286,
      "alt": 1202.1,
      "code": "4650",
      "size": "large",
      "popularity": 0.9,
      "ticket_sale": true,
      "passenger_drop": true
    },
    {
      "id": 1063,
      "name": "ÇADIRKAYA",
      "city": "ERZİNCAN",
      "city_id": 24,
      "district": "",
      "region": "dogu_anadolu",
      "lat": 39.8303,
      "lng": 40.1842,
      "alt": 1466.0,
      "code": "4626",
      "size": "large",
      "popularity": 0.9,
      "ticket_sale": false,
      "passenger_drop": true
    },
    {
      "id": 1130,
      "name": "İLİÇ",
      "city": "ERZİNCAN",
      "city_id": 24,
      "district": "İLİÇ",
      "region": "dogu_anadolu",
      "lat": 39.4758,
      "lng": 38.5589,
      "alt": 884.1,
      "code": "4581",
      "size": "large",
      "popularity": 0.9,
      "ticket_sale": true,
      "passenger_drop": true
    },
    {
      "id": 1147,
      "name": "AKYAKA",
      "city": "KARS",
      "city_id": 36,
      "district": "",
      "region": "dogu_anadolu",
      "lat": 40.7492,
      "lng": 43.6025,
      "alt": 1494.5,
      "code": "4603",
      "size": "large",
      "popularity": 0.9,
      "ticket_sale": true,
      "passenger_drop": true
    },
    {
      "id": 532,
      "name": "KARS",
      "city": "KARS",
      "city_id": 36,
      "district": "MERKEZ",
      "region": "dogu_anadolu",
      "lat": 40.6092,
      "lng": 43.1094,
      "alt": 1758.4,
      "code": "4594",
      "size": "large",
      "popularity": 0.9,
      "ticket_sale": false,
      "passenger_drop": true
    },
    {
      "id": 579,
      "name": "SARIKAMIŞ",
      "city": "KARS",
      "city_id": 36,
      "district": "",
      "region": "dogu_anadolu",
      "lat": 40.3367,
      "lng": 42.5769,
      "alt": 2080.1,
      "code": "4636",
      "size": "large",
      "popularity": 0.9,
      "ticket_sale": true,
      "passenger_drop": true
    },
    {
      "id": 568,
      "name": "SÜNGÜTAŞI",
      "city": "KARS",
      "city_id": 36,
      "district": "",
      "region": "dogu_anadolu",
      "lat": 40.2161,
      "lng": 42.2514,
      "alt": 1784.4,
      "code": "4645",
      "size": "large",
      "popularity": 0.9,
      "ticket_sale": true,
      "passenger_drop": true
    },
    {
      "id": 617,
      "name": "TABUR",
      "city": "KARS",
      "city_id": 36,
      "district": "AKYAKA",
      "region": "dogu_anadolu",
      "lat": 40.7337,
      "lng": 43.5464,
      "alt": 1522.0,
      "code": "4835",
      "size": "large",
      "popularity": 0.9,
      "ticket_sale": true,
      "passenger_drop": true
    },
    {
      "id": 585,
      "name": "TOPDAĞI",
      "city": "KARS",
      "city_id": 36,
      "district": "",
      "region": "dogu_anadolu",
      "lat": 40.3142,
      "lng": 42.3019,
      "alt": 1949.7,
      "code": "4669",
      "size": "large",
      "popularity": 0.9,
      "ticket_sale": true,
      "passenger_drop": true
    },
    {
      "id": 651,
      "name": "BATTALGAZİ",
      "city": "MALATYA",
      "city_id": 44,
      "district": "",
      "region": "dogu_anadolu",
      "lat": 38.4344,
      "lng": 38.3697,
      "alt": 766.7,
      "code": "5532",
      "size": "large",
      "popularity": 0.9,
      "ticket_sale": true,
      "passenger_drop": true
    },
    {
      "id": 660,
      "name": "HEKİMHAN",
      "city": "MALATYA",
      "city_id": 44,
      "district": "",
      "region": "dogu_anadolu",
      "lat": 38.8117,
      "lng": 37.9278,
      "alt": 1064.2,
      "code": "5547",
      "size": "large",
      "popularity": 0.9,
      "ticket_sale": true,
      "passenger_drop": true
    },
    {
      "id": 696,
      "name": "MALATYA",
      "city": "MALATYA",
      "city_id": 44,
      "district": "YEŞİLYURT",
      "region": "dogu_anadolu",
      "lat": 38.3528,
      "lng": 38.2814,
      "alt": 939.9,
      "code": "5576",
      "size": "large",
      "popularity": 0.9,
      "ticket_sale": true,
      "passenger_drop": true
    },
    {
      "id": 1123,
      "name": "YAZIHAN",
      "city": "MALATYA",
      "city_id": 44,
      "district": "",
      "region": "dogu_anadolu",
      "lat": 38.5975,
      "lng": 38.1817,
      "alt": 824.2,
      "code": "5615",
      "size": "large",
      "popularity": 0.9,
      "ticket_sale": true,
      "passenger_drop": true
    },
    {
      "id": 685,
      "name": "MUŞ",
      "city": "MUŞ",
      "city_id": 49,
      "district": "MERKEZ",
      "region": "dogu_anadolu",
      "lat": 38.7625,
      "lng": 41.5108,
      "alt": 1276.5,
      "code": "5585",
      "size": "large",
      "popularity": 0.9,
      "ticket_sale": true,
      "passenger_drop": true
    },
    {
      "id": 560,
      "name": "DEMİRKAPI",
      "city": "TUNCELİ",
      "city_id": 62,
      "district": "",
      "region": "dogu_anadolu",
      "lat": 39.5786,
      "lng": 45.1625,
      "alt": 1596.6,
      "code": "4633",
      "size": "large",
      "popularity": 0.9,
      "ticket_sale": true,
      "passenger_drop": true
    },
    {
      "id": 1401,
      "name": "KAPIKÖY",
      "city": "VAN",
      "city_id": 65,
      "district": "",
      "region": "dogu_anadolu",
      "lat": 38.51,
      "lng": 44.295,
      "alt": 2045.9,
      "code": "5664",
      "size": "small",
      "popularity": 0.3,
      "ticket_sale": false,
      "passenger_drop": true
    },
    {
      "id": 1386,
      "name": "VAN",
      "city": "VAN",
      "city_id": 65,
      "district": "",
      "region": "dogu_anadolu",
      "lat": 38.5217,
      "lng": 43.3828,
      "alt": 1696.0,
      "code": "5631",
      "size": "small",
      "popularity": 0.3,
      "ticket_sale": false,
      "passenger_drop": true
    },
    {
      "id": 1405,
      "name": "Özalp",
      "city": "VAN",
      "city_id": 65,
      "district": "ÖZALP",
      "region": "dogu_anadolu",
      "lat": 38.6536,
      "lng": 43.9904,
      "alt": 1989.8,
      "code": "5665",
      "size": "small",
      "popularity": 0.3,
      "ticket_sale": false,
      "passenger_drop": true
    },
    {
      "id": 873,
      "name": "AFYON A.ÇETİNKAYA",
      "city": "AFYONKARAHİSAR",
      "city_id": 3,
      "district": "MERKEZ",
      "region": "ege",
      "lat": 38.7631,
      "lng": 30.5531,
      "alt": 1007.3,
      "code": "7502",
      "size": "large",
      "popularity": 0.9,
      "ticket_sale": true,
      "passenger_drop": true
    },
    {
      "id": 888,
      "name": "BÜYÜKÇOBANLAR",
      "city": "AFYONKARAHİSAR",
      "city_id": 3,
      "district": "",
      "region": "ege",
      "lat": 38.6883,
      "lng": 30.7392,
      "alt": 989.9,
      "code": "7542",
      "size": "large",
      "popularity": 0.9,
      "ticket_sale": true,
      "passenger_drop": true
    },
    {
      "id": 898,
      "name": "DAZKIRI",
      "city": "AFYONKARAHİSAR",
      "city_id": 3,
      "district": "",
      "region": "ege",
      "lat": 37.9033,
      "lng": 29.8631,
      "alt": 870.2,
      "code": "7555",
      "size": "large",
      "popularity": 0.9,
      "ticket_sale": true,
      "passenger_drop": true
    },
    {
      "id": 903,
      "name": "DÖĞER",
      "city": "AFYONKARAHİSAR",
      "city_id": 3,
      "district": "",
      "region": "ege",
      "lat": 40.3325,
      "lng": 30.3808,
      "alt": 921.3,
      "code": "7564",
      "size": "large",
      "popularity": 0.9,
      "ticket_sale": true,
      "passenger_drop": true
    },
    {
      "id": 1081,
      "name": "DİNAR",
      "city": "AFYONKARAHİSAR",
      "city_id": 3,
      "district": "DİNAR",
      "region": "ege",
      "lat": 38.0653,
      "lng": 30.1564,
      "alt": 860.3,
      "code": "7561",
      "size": "large",
      "popularity": 0.9,
      "ticket_sale": true,
      "passenger_drop": true
    },
    {
      "id": 907,
      "name": "EKİNOVA",
      "city": "AFYONKARAHİSAR",
      "city_id": 3,
      "district": "",
      "region": "ege",
      "lat": 38.3058,
      "lng": 30.1869,
      "alt": 1047.8,
      "code": "7568",
      "size": "large",
      "popularity": 0.9,
      "ticket_sale": true,
      "passenger_drop": true
    },
    {
      "id": 917,
      "name": "GAZLIGÖL",
      "city": "AFYONKARAHİSAR",
      "city_id": 3,
      "district": "",
      "region": "ege",
      "lat": 38.9325,
      "lng": 30.5006,
      "alt": 1049.1,
      "code": "7584",
      "size": "large",
      "popularity": 0.9,
      "ticket_sale": true,
      "passenger_drop": true
    },
    {
      "id": 926,
      "name": "KARAKUYU",
      "city": "AFYONKARAHİSAR",
      "city_id": 3,
      "district": "",
      "region": "ege",
      "lat": 38.0903,
      "lng": 30.2192,
      "alt": 1009.1,
      "code": "7600",
      "size": "large",
      "popularity": 0.9,
      "ticket_sale": true,
      "passenger_drop": true
    },
    {
      "id": 1160,
      "name": "SANDIKLI",
      "city": "AFYONKARAHİSAR",
      "city_id": 3,
      "district": "",
      "region": "ege",
      "lat": 38.4583,
      "lng": 30.2611,
      "alt": 1068.0,
      "code": "7653",
      "size": "large",
      "popularity": 0.9,
      "ticket_sale": true,
      "passenger_drop": true
    },
    {
      "id": 959,
      "name": "SULTANDAĞI",
      "city": "AFYONKARAHİSAR",
      "city_id": 3,
      "district": "",
      "region": "ege",
      "lat": 38.5464,
      "lng": 31.2681,
      "alt": 972.4,
      "code": "7663",
      "size": "large",
      "popularity": 0.9,
      "ticket_sale": true,
      "passenger_drop": true
    },
    {
      "id": 961,
      "name": "SÜTLAÇ",
      "city": "AFYONKARAHİSAR",
      "city_id": 3,
      "district": "",
      "region": "ege",
      "lat": 38.1286,
      "lng": 29.9911,
      "alt": 852.0,
      "code": "7665",
      "size": "large",
      "popularity": 0.9,
      "ticket_sale": true,
      "passenger_drop": true
    },
    {
      "id": 963,
      "name": "TINAZTEPE",
      "city": "AFYONKARAHİSAR",
      "city_id": 3,
      "district": "",
      "region": "ege",
      "lat": 38.7167,
      "lng": 30.3853,
      "alt": 1158.7,
      "code": "7668",
      "size": "large",
      "popularity": 0.9,
      "ticket_sale": true,
      "passenger_drop": true
    },
    {
      "id": 967,
      "name": "YILDIRIMKEMAL",
      "city": "AFYONKARAHİSAR",
      "city_id": 3,
      "district": "",
      "region": "ege",
      "lat": 38.8783,
      "lng": 30.1261,
      "alt": 1149.8,
      "code": "7673",
      "size": "large",
      "popularity": 0.9,
      "ticket_sale": true,
      "passenger_drop": true
    },
    {
      "id": 912,
      "name": "ÇAY",
      "city": "AFYONKARAHİSAR",
      "city_id": 3,
      "district": "",
      "region": "ege",
      "lat": 38.6294,
      "lng": 31.0331,
      "alt": 973.6,
      "code": "7548",
      "size": "large",
      "popularity": 0.9,
      "ticket_sale": true,
      "passenger_drop": true
    },
    {
      "id": 922,
      "name": "İHSANİYE",
      "city": "AFYONKARAHİSAR",
      "city_id": 3,
      "district": "",
      "region": "ege",
      "lat": 39.5133,
      "lng": 30.4031,
      "alt": 1097.0,
      "code": "7591",
      "size": "large",
      "popularity": 0.9,
      "ticket_sale": true,
      "passenger_drop": true
    },
    {
      "id": 287,
      "name": "ATÇA",
      "city": "AYDIN",
      "city_id": 9,
      "district": "",
      "region": "ege",
      "lat": 37.8842,
      "lng": 28.2111,
      "alt": 81.5,
      "code": "3520",
      "size": "large",
      "popularity": 0.9,
      "ticket_sale": true,
      "passenger_drop": true
    },
    {
      "id": 288,
      "name": "AYDIN",
      "city": "AYDIN",
      "city_id": 9,
      "district": "",
      "region": "ege",
      "lat": 37.8486,
      "lng": 27.8367,
      "alt": 58.7,
      "code": "3522",
      "size": "large",
      "popularity": 0.9,
      "ticket_sale": true,
      "passenger_drop": true
    },
    {
      "id": 301,
      "name": "BUHARKENT",
      "city": "AYDIN",
      "city_id": 9,
      "district": "",
      "region": "ege",
      "lat": 37.9542,
      "lng": 28.7361,
      "alt": 133.8,
      "code": "3556",
      "size": "large",
      "popularity": 0.9,
      "ticket_sale": true,
      "passenger_drop": true
    },
    {
      "id": 321,
      "name": "GERMENCİK",
      "city": "AYDIN",
      "city_id": 9,
      "district": "",
      "region": "ege",
      "lat": 37.8742,
      "lng": 27.5953,
      "alt": 67.8,
      "code": "3603",
      "size": "large",
      "popularity": 0.9,
      "ticket_sale": true,
      "passenger_drop": true
    },
    {
      "id": 331,
      "name": "HORSUNLU",
      "city": "AYDIN",
      "city_id": 9,
      "district": "",
      "region": "ege",
      "lat": 37.9156,
      "lng": 28.5908,
      "alt": 113.3,
      "code": "3621",
      "size": "large",
      "popularity": 0.9,
      "ticket_sale": true,
      "passenger_drop": true
    },
    {
      "id": 370,
      "name": "KUYUCAK",
      "city": "AYDIN",
      "city_id": 9,
      "district": "",
      "region": "ege",
      "lat": 37.9103,
      "lng": 28.4581,
      "alt": 96.2,
      "code": "3673",
      "size": "large",
      "popularity": 0.9,
      "ticket_sale": true,
      "passenger_drop": true
    },
    {
      "id": 350,
      "name": "KÖŞK",
      "city": "AYDIN",
      "city_id": 9,
      "district": "",
      "region": "ege",
      "lat": 37.8536,
      "lng": 28.0492,
      "alt": 74.7,
      "code": "3670",
      "size": "large",
      "popularity": 0.9,
      "ticket_sale": true,
      "passenger_drop": true
    },
    {
      "id": 358,
      "name": "NAZİLLİ",
      "city": "AYDIN",
      "city_id": 9,
      "district": "",
      "region": "ege",
      "lat": 37.915,
      "lng": 28.3297,
      "alt": 90.5,
      "code": "3689",
      "size": "large",
      "popularity": 0.9,
      "ticket_sale": true,
      "passenger_drop": true
    },
    {
      "id": 362,
      "name": "ORTAKLAR",
      "city": "AYDIN",
      "city_id": 9,
      "district": "",
      "region": "ege",
      "lat": 37.8872,
      "lng": 27.5056,
      "alt": 63.6,
      "code": "3696",
      "size": "large",
      "popularity": 0.9,
      "ticket_sale": true,
      "passenger_drop": true
    },
    {
      "id": 320,
      "name": "PAMUKÖREN",
      "city": "AYDIN",
      "city_id": 9,
      "district": "",
      "region": "ege",
      "lat": 37.9106,
      "lng": 28.5356,
      "alt": 109.3,
      "code": "3602",
      "size": "large",
      "popularity": 0.9,
      "ticket_sale": true,
      "passenger_drop": true
    },
    {
      "id": 1055,
      "name": "SULTANHİSAR",
      "city": "AYDIN",
      "city_id": 9,
      "district": "",
      "region": "ege",
      "lat": 37.8903,
      "lng": 28.1658,
      "alt": 87.7,
      "code": "3734",
      "size": "large",
      "popularity": 0.9,
      "ticket_sale": true,
      "passenger_drop": true
    },
    {
      "id": 378,
      "name": "SÖKE",
      "city": "AYDIN",
      "city_id": 9,
      "district": "",
      "region": "ege",
      "lat": 37.7564,
      "lng": 27.4106,
      "alt": 40.9,
      "code": "3733",
      "size": "large",
      "popularity": 0.9,
      "ticket_sale": true,
      "passenger_drop": true
    },
    {
      "id": 353,
      "name": "İNCİRLİOVA",
      "city": "AYDIN",
      "city_id": 9,
      "district": "",
      "region": "ege",
      "lat": 37.8547,
      "lng": 27.7256,
      "alt": 46.9,
      "code": "3630",
      "size": "large",
      "popularity": 0.9,
      "ticket_sale": true,
      "passenger_drop": true
    },
    {
      "id": 885,
      "name": "BOZKURT",
      "city": "DENİZLİ",
      "city_id": 20,
      "district": "",
      "region": "ege",
      "lat": 37.8256,
      "lng": 29.6461,
      "alt": 854.8,
      "code": "7537",
      "size": "large",
      "popularity": 0.9,
      "ticket_sale": true,
      "passenger_drop": true
    },
    {
      "id": 309,
      "name": "DENİZLİ",
      "city": "DENİZLİ",
      "city_id": 20,
      "district": "",
      "region": "ege",
      "lat": 37.7892,
      "lng": 29.0897,
      "alt": 350.5,
      "code": "3577",
      "size": "large",
      "popularity": 0.9,
      "ticket_sale": true,
      "passenger_drop": true
    },
    {
      "id": 322,
      "name": "GONCALI",
      "city": "DENİZLİ",
      "city_id": 20,
      "district": "",
      "region": "ege",
      "lat": 37.8494,
      "lng": 29.1169,
      "alt": 202.6,
      "code": "3604",
      "size": "large",
      "popularity": 0.9,
      "ticket_sale": true,
      "passenger_drop": true
    },
    {
      "id": 925,
      "name": "KAKLIK",
      "city": "DENİZLİ",
      "city_id": 20,
      "district": "",
      "region": "ege",
      "lat": 37.8269,
      "lng": 29.415,
      "alt": 535.2,
      "code": "7596",
      "size": "large",
      "popularity": 0.9,
      "ticket_sale": true,
      "passenger_drop": true
    },
    {
      "id": 388,
      "name": "SARAYKÖY",
      "city": "DENİZLİ",
      "city_id": 20,
      "district": "",
      "region": "ege",
      "lat": 37.9144,
      "lng": 28.9272,
      "alt": 166.7,
      "code": "3714",
      "size": "large",
      "popularity": 0.9,
      "ticket_sale": true,
      "passenger_drop": true
    },
    {
      "id": 891,
      "name": "ÇARDAK",
      "city": "DENİZLİ",
      "city_id": 20,
      "district": "",
      "region": "ege",
      "lat": 37.8214,
      "lng": 29.6803,
      "alt": 851.4,
      "code": "7546",
      "size": "large",
      "popularity": 0.9,
      "ticket_sale": true,
      "passenger_drop": true
    },
    {
      "id": 1115,
      "name": "AHMETLİ",
      "city": "MANİSA",
      "city_id": 45,
      "district": "",
      "region": "ege",
      "lat": 38.5169,
      "lng": 27.9372,
      "alt": 85.5,
      "code": "3505",
      "size": "large",
      "popularity": 0.9,
      "ticket_sale": true,
      "passenger_drop": true
    },
    {
      "id": 280,
      "name": "AKHİSAR",
      "city": "MANİSA",
      "city_id": 45,
      "district": "",
      "region": "ege",
      "lat": 38.9222,
      "lng": 27.8336,
      "alt": 99.0,
      "code": "3506",
      "size": "large",
      "popularity": 0.9,
      "ticket_sale": true,
      "passenger_drop": true
    },
    {
      "id": 1050,
      "name": "ALAŞEHİR",
      "city": "MANİSA",
      "city_id": 45,
      "district": "",
      "region": "ege",
      "lat": 38.3578,
      "lng": 28.5164,
      "alt": 187.4,
      "code": "3511",
      "size": "large",
      "popularity": 0.9,
      "ticket_sale": true,
      "passenger_drop": true
    },
    {
      "id": 338,
      "name": "KAPAKLI",
      "city": "MANİSA",
      "city_id": 45,
      "district": "",
      "region": "ege",
      "lat": 38.8736,
      "lng": 27.745,
      "alt": 86.0,
      "code": "3640",
      "size": "large",
      "popularity": 0.9,
      "ticket_sale": true,
      "passenger_drop": true
    },
    {
      "id": 340,
      "name": "KARAAĞAÇLI",
      "city": "MANİSA",
      "city_id": 45,
      "district": "",
      "region": "ege",
      "lat": 38.6306,
      "lng": 27.4672,
      "alt": 25.0,
      "code": "3642",
      "size": "large",
      "popularity": 0.9,
      "ticket_sale": true,
      "passenger_drop": true
    },
    {
      "id": 311,
      "name": "KAVAKLIDERE",
      "city": "MANİSA",
      "city_id": 45,
      "district": "",
      "region": "ege",
      "lat": 38.4283,
      "lng": 28.3631,
      "alt": 142.7,
      "code": "3580",
      "size": "large",
      "popularity": 0.9,
      "ticket_sale": true,
      "passenger_drop": true
    },
    {
      "id": 345,
      "name": "KIRKAĞAÇ",
      "city": "MANİSA",
      "city_id": 45,
      "district": "",
      "region": "ege",
      "lat": 39.1031,
      "lng": 27.7025,
      "alt": 161.0,
      "code": "3657",
      "size": "large",
      "popularity": 0.9,
      "ticket_sale": true,
      "passenger_drop": true
    },
    {
      "id": 371,
      "name": "MANİSA",
      "city": "MANİSA",
      "city_id": 45,
      "district": "",
      "region": "ege",
      "lat": 38.6217,
      "lng": 27.4408,
      "alt": 43.6,
      "code": "3677",
      "size": "large",
      "popularity": 0.9,
      "ticket_sale": true,
      "passenger_drop": true
    },
    {
      "id": 355,
      "name": "MURADİYE",
      "city": "MANİSA",
      "city_id": 45,
      "district": "",
      "region": "ege",
      "lat": 38.6522,
      "lng": 27.3292,
      "alt": 31.1,
      "code": "3685",
      "size": "large",
      "popularity": 0.9,
      "ticket_sale": true,
      "passenger_drop": true
    },
    {
      "id": 369,
      "name": "SALİHLİ",
      "city": "MANİSA",
      "city_id": 45,
      "district": "",
      "region": "ege",
      "lat": 38.4831,
      "lng": 28.1306,
      "alt": 110.1,
      "code": "3711",
      "size": "large",
      "popularity": 0.9,
      "ticket_sale": true,
      "passenger_drop": true
    },
    {
      "id": 390,
      "name": "SARUHANLI",
      "city": "MANİSA",
      "city_id": 45,
      "district": "",
      "region": "ege",
      "lat": 38.7331,
      "lng": 27.5778,
      "alt": 40.1,
      "code": "3717",
      "size": "large",
      "popularity": 0.9,
      "ticket_sale": true,
      "passenger_drop": true
    },
    {
      "id": 1164,
      "name": "SOMA",
      "city": "MANİSA",
      "city_id": 45,
      "district": "",
      "region": "ege",
      "lat": 39.2033,
      "lng": 27.6183,
      "alt": 131.1,
      "code": "3728",
      "size": "large",
      "popularity": 0.9,
      "ticket_sale": true,
      "passenger_drop": true
    },
    {
      "id": 1163,
      "name": "TURGUTLU",
      "city": "MANİSA",
      "city_id": 45,
      "district": "",
      "region": "ege",
      "lat": 38.5128,
      "lng": 27.6969,
      "alt": 66.3,
      "code": "3752",
      "size": "large",
      "popularity": 0.9,
      "ticket_sale": true,
      "passenger_drop": true
    },
    {
      "id": 396,
      "name": "URGANLI",
      "city": "MANİSA",
      "city_id": 45,
      "district": "",
      "region": "ege",
      "lat": 38.5192,
      "lng": 27.8414,
      "alt": 69.4,
      "code": "3757",
      "size": "large",
      "popularity": 0.9,
      "ticket_sale": true,
      "passenger_drop": true
    },
    {
      "id": 290,
      "name": "BANAZ",
      "city": "UŞAK",
      "city_id": 64,
      "district": "",
      "region": "ege",
      "lat": 38.7367,
      "lng": 29.7536,
      "alt": 914.0,
      "code": "3531",
      "size": "large",
      "popularity": 0.9,
      "ticket_sale": true,
      "passenger_drop": true
    },
    {
      "id": 1189,
      "name": "DAVUTLAR KÖYÜ",
      "city": "UŞAK",
      "city_id": 64,
      "district": "",
      "region": "ege",
      "lat": 38.3842,
      "lng": 28.815,
      "alt": 708.5,
      "code": "3457",
      "size": "large",
      "popularity": 0.9,
      "ticket_sale": false,
      "passenger_drop": true
    },
    {
      "id": 316,
      "name": "EŞME",
      "city": "UŞAK",
      "city_id": 64,
      "district": "",
      "region": "ege",
      "lat": 38.0833,
      "lng": 28.99,
      "alt": 302.2,
      "code": "3594",
      "size": "large",
      "popularity": 0.9,
      "ticket_sale": true,
      "passenger_drop": true
    },
    {
      "id": 1052,
      "name": "GÜNEYKÖY",
      "city": "UŞAK",
      "city_id": 64,
      "district": "",
      "region": "ege",
      "lat": 38.385,
      "lng": 28.8644,
      "alt": 825.6,
      "code": "3610",
      "size": "large",
      "popularity": 0.9,
      "ticket_sale": true,
      "passenger_drop": true
    },
    {
      "id": 363,
      "name": "OTURAK",
      "city": "UŞAK",
      "city_id": 64,
      "district": "",
      "region": "ege",
      "lat": 38.8406,
      "lng": 29.9044,
      "alt": 1033.8,
      "code": "3698",
      "size": "large",
      "popularity": 0.9,
      "ticket_sale": true,
      "passenger_drop": true
    },
    {
      "id": 397,
      "name": "UŞAK",
      "city": "UŞAK",
      "city_id": 64,
      "district": "",
      "region": "ege",
      "lat": 38.6642,
      "lng": 29.4075,
      "alt": 904.1,
      "code": "3758",
      "size": "large",
      "popularity": 0.9,
      "ticket_sale": true,
      "passenger_drop": true
    },
    {
      "id": 352,
      "name": "İNAY",
      "city": "UŞAK",
      "city_id": 64,
      "district": "",
      "region": "ege",
      "lat": 38.4228,
      "lng": 29.2278,
      "alt": 754.9,
      "code": "3627",
      "size": "large",
      "popularity": 0.9,
      "ticket_sale": true,
      "passenger_drop": true
    },
    {
      "id": 289,
      "name": "AYVACIK",
      "city": "İZMİR",
      "city_id": 35,
      "district": "",
      "region": "ege",
      "lat": 38.6306,
      "lng": 27.2031,
      "alt": 17.1,
      "code": "3524",
      "size": "large",
      "popularity": 0.9,
      "ticket_sale": true,
      "passenger_drop": true
    },
    {
      "id": 1150,
      "name": "BAYINDIR",
      "city": "İZMİR",
      "city_id": 35,
      "district": "",
      "region": "ege",
      "lat": 38.2136,
      "lng": 27.6492,
      "alt": 59.2,
      "code": "3540",
      "size": "large",
      "popularity": 0.9,
      "ticket_sale": true,
      "passenger_drop": true
    },
    {
      "id": 335,
      "name": "EMİRALEM",
      "city": "İZMİR",
      "city_id": 35,
      "district": "",
      "region": "ege",
      "lat": 38.6258,
      "lng": 27.15,
      "alt": 22.5,
      "code": "3591",
      "size": "large",
      "popularity": 0.9,
      "ticket_sale": true,
      "passenger_drop": true
    },
    {
      "id": 881,
      "name": "FEN LİSESİ DURAĞI",
      "city": "İZMİR",
      "city_id": 35,
      "district": "",
      "region": "ege",
      "lat": 38.1228,
      "lng": 27.7172,
      "alt": 54.6,
      "code": "3452",
      "size": "large",
      "popularity": 0.9,
      "ticket_sale": true,
      "passenger_drop": true
    },
    {
      "id": 317,
      "name": "FURUNLU",
      "city": "İZMİR",
      "city_id": 35,
      "district": "",
      "region": "ege",
      "lat": 38.196,
      "lng": 27.6044,
      "alt": 38.9,
      "code": "3596",
      "size": "large",
      "popularity": 0.9,
      "ticket_sale": true,
      "passenger_drop": true
    },
    {
      "id": 318,
      "name": "GAZİEMİR",
      "city": "İZMİR",
      "city_id": 35,
      "district": "",
      "region": "ege",
      "lat": 38.3261,
      "lng": 27.1397,
      "alt": 126.8,
      "code": "3597",
      "size": "large",
      "popularity": 0.9,
      "ticket_sale": true,
      "passenger_drop": true
    },
    {
      "id": 373,
      "name": "MENEMEN",
      "city": "İZMİR",
      "city_id": 35,
      "district": "",
      "region": "ege",
      "lat": 38.6028,
      "lng": 27.0753,
      "alt": 19.9,
      "code": "3681",
      "size": "large",
      "popularity": 0.9,
      "ticket_sale": true,
      "passenger_drop": true
    },
    {
      "id": 365,
      "name": "PANCAR",
      "city": "İZMİR",
      "city_id": 35,
      "district": "",
      "region": "ege",
      "lat": 38.1975,
      "lng": 27.2394,
      "alt": 54.7,
      "code": "3705",
      "size": "large",
      "popularity": 0.9,
      "ticket_sale": true,
      "passenger_drop": true
    },
    {
      "id": 389,
      "name": "SART",
      "city": "İZMİR",
      "city_id": 35,
      "district": "",
      "region": "ege",
      "lat": 38.4972,
      "lng": 28.0444,
      "alt": 99.3,
      "code": "3716",
      "size": "large",
      "popularity": 0.9,
      "ticket_sale": true,
      "passenger_drop": true
    },
    {
      "id": 375,
      "name": "SELÇUK",
      "city": "İZMİR",
      "city_id": 35,
      "district": "",
      "region": "ege",
      "lat": 37.9514,
      "lng": 27.3733,
      "alt": 22.8,
      "code": "3720",
      "size": "large",
      "popularity": 0.9,
      "ticket_sale": true,
      "passenger_drop": true
    },
    {
      "id": 392,
      "name": "TOKI DURAĞI",
      "city": "İZMİR",
      "city_id": 35,
      "district": "",
      "region": "ege",
      "lat": 38.1266,
      "lng": 27.7154,
      "alt": 52.1,
      "code": "3453",
      "size": "large",
      "popularity": 0.9,
      "ticket_sale": false,
      "passenger_drop": true
    },
    {
      "id": 410,
      "name": "TORBALI",
      "city": "İZMİR",
      "city_id": 35,
      "district": "",
      "region": "ege",
      "lat": 38.1706,
      "lng": 27.3481,
      "alt": 45.9,
      "code": "3750",
      "size": "large",
      "popularity": 0.9,
      "ticket_sale": true,
      "passenger_drop": true
    },
    {
      "id": 409,
      "name": "TİRE",
      "city": "İZMİR",
      "city_id": 35,
      "district": "",
      "region": "ege",
      "lat": 38.1228,
      "lng": 27.7172,
      "alt": 54.6,
      "code": "3749",
      "size": "large",
      "popularity": 0.9,
      "ticket_sale": true,
      "passenger_drop": true
    },
    {
      "id": 395,
      "name": "UMURLU",
      "city": "İZMİR",
      "city_id": 35,
      "district": "",
      "region": "ege",
      "lat": 37.8536,
      "lng": 27.955,
      "alt": 54.3,
      "code": "3756",
      "size": "large",
      "popularity": 0.9,
      "ticket_sale": true,
      "passenger_drop": true
    },
    {
      "id": 1422,
      "name": "Yedi Eylül",
      "city": "İZMİR",
      "city_id": 35,
      "district": "",
      "region": "ege",
      "lat": 38.1706,
      "lng": 27.4442,
      "alt": 29.3,
      "code": "3754",
      "size": "small",
      "popularity": 0.3,
      "ticket_sale": false,
      "passenger_drop": false
    },
    {
      "id": 1116,
      "name": "ÇAMLIK",
      "city": "İZMİR",
      "city_id": 35,
      "district": "",
      "region": "ege",
      "lat": 37.8806,
      "lng": 27.3781,
      "alt": 232.4,
      "code": "3561",
      "size": "large",
      "popularity": 0.9,
      "ticket_sale": true,
      "passenger_drop": true
    },
    {
      "id": 1155,
      "name": "ÇATAL",
      "city": "İZMİR",
      "city_id": 35,
      "district": "",
      "region": "ege",
      "lat": 38.1692,
      "lng": 27.7239,
      "alt": 55.9,
      "code": "3564",
      "size": "large",
      "popularity": 0.9,
      "ticket_sale": true,
      "passenger_drop": true
    },
    {
      "id": 305,
      "name": "ÇİĞLİ",
      "city": "İZMİR",
      "city_id": 35,
      "district": "",
      "region": "ege",
      "lat": 38.4919,
      "lng": 27.0631,
      "alt": 7.5,
      "code": "3571",
      "size": "large",
      "popularity": 0.9,
      "ticket_sale": true,
      "passenger_drop": true
    },
    {
      "id": 1054,
      "name": "ÖDEMİŞ GAR",
      "city": "İZMİR",
      "city_id": 35,
      "district": "",
      "region": "ege",
      "lat": 38.2228,
      "lng": 27.9672,
      "alt": 121.0,
      "code": "3700",
      "size": "large",
      "popularity": 0.9,
      "ticket_sale": true,
      "passenger_drop": true
    },
    {
      "id": 1148,
      "name": "ÖDEMİŞ ŞEHİR",
      "city": "İZMİR",
      "city_id": 35,
      "district": "",
      "region": "ege",
      "lat": 38.2272,
      "lng": 27.9772,
      "alt": 130.4,
      "code": "3701",
      "size": "large",
      "popularity": 0.9,
      "ticket_sale": true,
      "passenger_drop": true
    },
    {
      "id": 312,
      "name": "İZMİR (BASMANE)",
      "city": "İZMİR",
      "city_id": 35,
      "district": "",
      "region": "ege",
      "lat": 38.4236,
      "lng": 27.1472,
      "alt": 6.0,
      "code": "3536",
      "size": "large",
      "popularity": 0.9,
      "ticket_sale": true,
      "passenger_drop": true
    },
    {
      "id": 633,
      "name": "BATMAN",
      "city": "BATMAN",
      "city_id": 72,
      "district": "MERKEZ",
      "region": "guneydogu",
      "lat": 37.8783,
      "lng": 41.1231,
      "alt": 569.7,
      "code": "5506",
      "size": "large",
      "popularity": 0.9,
      "ticket_sale": true,
      "passenger_drop": true
    },
    {
      "id": 637,
      "name": "BEŞİRİ",
      "city": "BATMAN",
      "city_id": 72,
      "district": "",
      "region": "guneydogu",
      "lat": 37.965,
      "lng": 41.3314,
      "alt": 566.3,
      "code": "5510",
      "size": "large",
      "popularity": 0.9,
      "ticket_sale": true,
      "passenger_drop": true
    },
    {
      "id": 1311,
      "name": "SOĞUKSU",
      "city": "BATMAN",
      "city_id": 72,
      "district": "",
      "region": "guneydogu",
      "lat": 37.8321,
      "lng": 41.0188,
      "alt": 554.4,
      "code": "5606",
      "size": "large",
      "popularity": 0.9,
      "ticket_sale": false,
      "passenger_drop": false
    },
    {
      "id": 657,
      "name": "BİSMİL",
      "city": "DİYARBAKIR",
      "city_id": 21,
      "district": "",
      "region": "guneydogu",
      "lat": 37.8536,
      "lng": 40.6625,
      "alt": 556.1,
      "code": "5512",
      "size": "large",
      "popularity": 0.9,
      "ticket_sale": true,
      "passenger_drop": true
    },
    {
      "id": 1109,
      "name": "DİYARBAKIR",
      "city": "DİYARBAKIR",
      "city_id": 21,
      "district": "YENİŞEHİR",
      "region": "guneydogu",
      "lat": 37.9147,
      "lng": 40.2156,
      "alt": 673.9,
      "code": "5523",
      "size": "large",
      "popularity": 0.9,
      "ticket_sale": true,
      "passenger_drop": true
    },
    {
      "id": 650,
      "name": "ERGANİ",
      "city": "DİYARBAKIR",
      "city_id": 21,
      "district": "ERGANİ",
      "region": "guneydogu",
      "lat": 38.2339,
      "lng": 39.7544,
      "alt": 836.0,
      "code": "5531",
      "size": "large",
      "popularity": 0.9,
      "ticket_sale": true,
      "passenger_drop": true
    },
    {
      "id": 674,
      "name": "LEYLEK",
      "city": "DİYARBAKIR",
      "city_id": 21,
      "district": "",
      "region": "guneydogu",
      "lat": 38.0225,
      "lng": 40.0833,
      "alt": 733.0,
      "code": "5573",
      "size": "large",
      "popularity": 0.9,
      "ticket_sale": true,
      "passenger_drop": true
    },
    {
      "id": 688,
      "name": "SALAT",
      "city": "DİYARBAKIR",
      "city_id": 21,
      "district": "",
      "region": "guneydogu",
      "lat": 37.8462,
      "lng": 40.8887,
      "alt": 534.5,
      "code": "5592",
      "size": "large",
      "popularity": 0.9,
      "ticket_sale": false,
      "passenger_drop": true
    },
    {
      "id": 689,
      "name": "SALLAR",
      "city": "DİYARBAKIR",
      "city_id": 21,
      "district": "",
      "region": "guneydogu",
      "lat": 38.2761,
      "lng": 39.6783,
      "alt": 954.6,
      "code": "5593",
      "size": "large",
      "popularity": 0.9,
      "ticket_sale": true,
      "passenger_drop": true
    },
    {
      "id": 1310,
      "name": "SAZLIK",
      "city": "DİYARBAKIR",
      "city_id": 21,
      "district": "",
      "region": "guneydogu",
      "lat": 37.8287,
      "lng": 40.9838,
      "alt": 533.0,
      "code": "5602",
      "size": "large",
      "popularity": 0.9,
      "ticket_sale": false,
      "passenger_drop": false
    },
    {
      "id": 642,
      "name": "ÇÖLTEPE",
      "city": "DİYARBAKIR",
      "city_id": 21,
      "district": "",
      "region": "guneydogu",
      "lat": 37.8481,
      "lng": 40.8017,
      "alt": 573.6,
      "code": "5516",
      "size": "large",
      "popularity": 0.9,
      "ticket_sale": true,
      "passenger_drop": true
    },
    {
      "id": 840,
      "name": "GAZİANTEP",
      "city": "GAZİANTEP",
      "city_id": 27,
      "district": "ŞEHİTKAMİL",
      "region": "guneydogu",
      "lat": 37.0733,
      "lng": 37.3803,
      "alt": 836.0,
      "code": "6647",
      "size": "large",
      "popularity": 0.9,
      "ticket_sale": true,
      "passenger_drop": true
    },
    {
      "id": 804,
      "name": "MUSTAFAYAVUZ",
      "city": "GAZİANTEP",
      "city_id": 27,
      "district": "",
      "region": "guneydogu",
      "lat": 37.0678,
      "lng": 37.4342,
      "alt": 822.0,
      "code": "6591",
      "size": "large",
      "popularity": 0.9,
      "ticket_sale": true,
      "passenger_drop": true
    },
    {
      "id": 806,
      "name": "NİZİP",
      "city": "GAZİANTEP",
      "city_id": 27,
      "district": "NİZİP",
      "region": "guneydogu",
      "lat": 37.0167,
      "lng": 37.8,
      "alt": 530.3,
      "code": "6593",
      "size": "large",
      "popularity": 0.9,
      "ticket_sale": true,
      "passenger_drop": true
    },
    {
      "id": 1344,
      "name": "TAŞLICA",
      "city": "GAZİANTEP",
      "city_id": 27,
      "district": "ŞEHİTKAMİL",
      "region": "guneydogu",
      "lat": 37.0582,
      "lng": 37.4489,
      "alt": 811.9,
      "code": "6635",
      "size": "large",
      "popularity": 0.9,
      "ticket_sale": true,
      "passenger_drop": true
    },
    {
      "id": 670,
      "name": "KURTALAN",
      "city": "SİİRT",
      "city_id": 56,
      "district": "KURTALAN",
      "region": "guneydogu",
      "lat": 37.93,
      "lng": 41.6939,
      "alt": 693.4,
      "code": "5567",
      "size": "large",
      "popularity": 0.9,
      "ticket_sale": true,
      "passenger_drop": true
    },
    {
      "id": 98,
      "name": "ANKARA GAR",
      "city": "ANKARA",
      "city_id": 6,
      "district": "ALTINDAĞ",
      "region": "ic_anadolu",
      "lat": 39.9354,
      "lng": 32.843,
      "alt": 849.5,
      "code": "2503",
      "size": "large",
      "popularity": 0.9,
      "ticket_sale": false,
      "passenger_drop": true
    },
    {
      "id": 84,
      "name": "BEYLİKKÖPRÜ",
      "city": "ANKARA",
      "city_id": 6,
      "district": "",
      "region": "ic_anadolu",
      "lat": 39.6008,
      "lng": 31.9581,
      "alt": 688.7,
      "code": "2421",
      "size": "large",
      "popularity": 0.9,
      "ticket_sale": true,
      "passenger_drop": true
    },
    {
      "id": 143,
      "name": "ELMADAĞ",
      "city": "ANKARA",
      "city_id": 6,
      "district": "",
      "region": "ic_anadolu",
      "lat": 39.9242,
      "lng": 33.2281,
      "alt": 1094.5,
      "code": "2533",
      "size": "large",
      "popularity": 0.9,
      "ticket_sale": true,
      "passenger_drop": true
    },
    {
      "id": 1392,
      "name": "ELMADAĞ YHT",
      "city": "ANKARA",
      "city_id": 6,
      "district": "ELMADAĞ",
      "region": "ic_anadolu",
      "lat": 39.9306,
      "lng": 33.2378,
      "alt": 1115.2,
      "code": "9400",
      "size": "large",
      "popularity": 0.9,
      "ticket_sale": false,
      "passenger_drop": false
    },
    {
      "id": 1324,
      "name": "ERENKÖY SAYDİNG",
      "city": "ANKARA",
      "city_id": 6,
      "district": "",
      "region": "ic_anadolu",
      "lat": 40.7689,
      "lng": 29.5708,
      "alt": 25.4,
      "code": "9712",
      "size": "large",
      "popularity": 0.9,
      "ticket_sale": true,
      "passenger_drop": true
    },
    {
      "id": 1306,
      "name": "ERYAMAN YHT",
      "city": "ANKARA",
      "city_id": 6,
      "district": "ETİMESGUT",
      "region": "ic_anadolu",
      "lat": 39.9558,
      "lng": 32.6302,
      "alt": 798.5,
      "code": "9092",
      "size": "large",
      "popularity": 0.9,
      "ticket_sale": true,
      "passenger_drop": true
    },
    {
      "id": 149,
      "name": "KALECİK",
      "city": "ANKARA",
      "city_id": 6,
      "district": "",
      "region": "ic_anadolu",
      "lat": 40.0761,
      "lng": 33.4447,
      "alt": 654.1,
      "code": "2564",
      "size": "large",
      "popularity": 0.9,
      "ticket_sale": true,
      "passenger_drop": true
    },
    {
      "id": 1161,
      "name": "KAYAŞ",
      "city": "ANKARA",
      "city_id": 6,
      "district": "",
      "region": "ic_anadolu",
      "lat": 39.9144,
      "lng": 32.9636,
      "alt": 934.8,
      "code": "2578",
      "size": "large",
      "popularity": 0.9,
      "ticket_sale": true,
      "passenger_drop": true
    },
    {
      "id": 178,
      "name": "LALAHAN",
      "city": "ANKARA",
      "city_id": 6,
      "district": "",
      "region": "ic_anadolu",
      "lat": 39.9706,
      "lng": 33.1172,
      "alt": 1080.3,
      "code": "2598",
      "size": "large",
      "popularity": 0.9,
      "ticket_sale": true,
      "passenger_drop": true
    },
    {
      "id": 188,
      "name": "POLATLI",
      "city": "ANKARA",
      "city_id": 6,
      "district": "POLATLI",
      "region": "ic_anadolu",
      "lat": 39.5858,
      "lng": 32.1428,
      "alt": 876.9,
      "code": "2612",
      "size": "large",
      "popularity": 0.9,
      "ticket_sale": true,
      "passenger_drop": true
    },
    {
      "id": 244,
      "name": "POLATLI YHT",
      "city": "ANKARA",
      "city_id": 6,
      "district": "POLATLI",
      "region": "ic_anadolu",
      "lat": 39.6714,
      "lng": 32.2308,
      "alt": 846.4,
      "code": "2712",
      "size": "large",
      "popularity": 0.9,
      "ticket_sale": true,
      "passenger_drop": true
    },
    {
      "id": 179,
      "name": "SAZPINARI",
      "city": "ANKARA",
      "city_id": 6,
      "district": "",
      "region": "ic_anadolu",
      "lat": 39.9567,
      "lng": 32.5437,
      "alt": 796.9,
      "code": "2599",
      "size": "large",
      "popularity": 0.9,
      "ticket_sale": false,
      "passenger_drop": true
    },
    {
      "id": 192,
      "name": "SİNCAN",
      "city": "ANKARA",
      "city_id": 6,
      "district": "SİNCAN",
      "region": "ic_anadolu",
      "lat": 39.9644,
      "lng": 32.5828,
      "alt": 789.9,
      "code": "2619",
      "size": "large",
      "popularity": 0.9,
      "ticket_sale": true,
      "passenger_drop": true
    },
    {
      "id": 1335,
      "name": "YENİDOĞAN DURAĞI",
      "city": "ANKARA",
      "city_id": 6,
      "district": "",
      "region": "ic_anadolu",
      "lat": 39.6923,
      "lng": 32.2529,
      "alt": 819.5,
      "code": "2775",
      "size": "large",
      "popularity": 0.9,
      "ticket_sale": false,
      "passenger_drop": true
    },
    {
      "id": 779,
      "name": "AYRANCI",
      "city": "KARAMAN",
      "city_id": 70,
      "district": "",
      "region": "ic_anadolu",
      "lat": 37.3622,
      "lng": 33.6867,
      "alt": 1137.0,
      "code": "6519",
      "size": "large",
      "popularity": 0.9,
      "ticket_sale": true,
      "passenger_drop": true
    },
    {
      "id": 791,
      "name": "KARAMAN",
      "city": "KARAMAN",
      "city_id": 70,
      "district": "MERKEZ",
      "region": "ic_anadolu",
      "lat": 37.1931,
      "lng": 33.215,
      "alt": 1025.8,
      "code": "6569",
      "size": "large",
      "popularity": 0.9,
      "ticket_sale": true,
      "passenger_drop": true
    },
    {
      "id": 814,
      "name": "SUDURAĞI",
      "city": "KARAMAN",
      "city_id": 70,
      "district": "",
      "region": "ic_anadolu",
      "lat": 37.2719,
      "lng": 33.3753,
      "alt": 1020.8,
      "code": "6608",
      "size": "large",
      "popularity": 0.9,
      "ticket_sale": true,
      "passenger_drop": true
    },
    {
      "id": 101,
      "name": "ARAPLI",
      "city": "KAYSERİ",
      "city_id": 38,
      "district": "",
      "region": "ic_anadolu",
      "lat": 38.2411,
      "lng": 35.0472,
      "alt": 1331.4,
      "code": "2506",
      "size": "large",
      "popularity": 0.9,
      "ticket_sale": true,
      "passenger_drop": true
    },
    {
      "id": 1042,
      "name": "BOĞAZKÖPRÜ",
      "city": "KAYSERİ",
      "city_id": 38,
      "district": "",
      "region": "ic_anadolu",
      "lat": 38.755,
      "lng": 35.3225,
      "alt": 1039.2,
      "code": "2515",
      "size": "large",
      "popularity": 0.9,
      "ticket_sale": true,
      "passenger_drop": true
    },
    {
      "id": 524,
      "name": "GÖMEÇ",
      "city": "KAYSERİ",
      "city_id": 38,
      "district": "",
      "region": "ic_anadolu",
      "lat": 38.8342,
      "lng": 35.6453,
      "alt": 1090.2,
      "code": "4561",
      "size": "large",
      "popularity": 0.9,
      "ticket_sale": true,
      "passenger_drop": true
    },
    {
      "id": 141,
      "name": "HİMMETDEDE",
      "city": "KAYSERİ",
      "city_id": 38,
      "district": "",
      "region": "ic_anadolu",
      "lat": 38.9097,
      "lng": 35.0844,
      "alt": 1223.8,
      "code": "2552",
      "size": "large",
      "popularity": 0.9,
      "ticket_sale": true,
      "passenger_drop": true
    },
    {
      "id": 545,
      "name": "KARAÖZÜ",
      "city": "KAYSERİ",
      "city_id": 38,
      "district": "",
      "region": "ic_anadolu",
      "lat": 39.1833,
      "lng": 35.9544,
      "alt": 1129.8,
      "code": "4588",
      "size": "large",
      "popularity": 0.9,
      "ticket_sale": true,
      "passenger_drop": true
    },
    {
      "id": 182,
      "name": "KAYSERİ",
      "city": "KAYSERİ",
      "city_id": 38,
      "district": "KOCASİNAN",
      "region": "ic_anadolu",
      "lat": 38.7272,
      "lng": 35.4686,
      "alt": 1050.4,
      "code": "2579",
      "size": "large",
      "popularity": 0.9,
      "ticket_sale": true,
      "passenger_drop": true
    },
    {
      "id": 165,
      "name": "KAYSERİ (İNCESU)",
      "city": "KAYSERİ",
      "city_id": 38,
      "district": "",
      "region": "ic_anadolu",
      "lat": 38.6297,
      "lng": 35.1967,
      "alt": 1072.5,
      "code": "2559",
      "size": "large",
      "popularity": 0.9,
      "ticket_sale": true,
      "passenger_drop": true
    },
    {
      "id": 580,
      "name": "SARIMSAKLI",
      "city": "KAYSERİ",
      "city_id": 38,
      "district": "",
      "region": "ic_anadolu",
      "lat": 38.8953,
      "lng": 35.7169,
      "alt": 1174.2,
      "code": "4637",
      "size": "large",
      "popularity": 0.9,
      "ticket_sale": true,
      "passenger_drop": true
    },
    {
      "id": 1157,
      "name": "SARIOĞLAN",
      "city": "KAYSERİ",
      "city_id": 38,
      "district": "",
      "region": "ic_anadolu",
      "lat": 39.0822,
      "lng": 35.9647,
      "alt": 1146.8,
      "code": "4635",
      "size": "large",
      "popularity": 0.9,
      "ticket_sale": true,
      "passenger_drop": true
    },
    {
      "id": 578,
      "name": "TUZHİSAR",
      "city": "KAYSERİ",
      "city_id": 38,
      "district": "",
      "region": "ic_anadolu",
      "lat": 38.9439,
      "lng": 35.8464,
      "alt": 1251.7,
      "code": "4660",
      "size": "large",
      "popularity": 0.9,
      "ticket_sale": true,
      "passenger_drop": true
    },
    {
      "id": 211,
      "name": "YEŞİLHİSAR",
      "city": "KAYSERİ",
      "city_id": 38,
      "district": "",
      "region": "ic_anadolu",
      "lat": 38.3697,
      "lng": 35.0833,
      "alt": 1137.6,
      "code": "2640",
      "size": "large",
      "popularity": 0.9,
      "ticket_sale": true,
      "passenger_drop": true
    },
    {
      "id": 105,
      "name": "BALIŞIH",
      "city": "KIRIKKALE",
      "city_id": 71,
      "district": "",
      "region": "ic_anadolu",
      "lat": 39.9097,
      "lng": 33.7214,
      "alt": 864.8,
      "code": "2511",
      "size": "large",
      "popularity": 0.9,
      "ticket_sale": true,
      "passenger_drop": true
    },
    {
      "id": 125,
      "name": "BEREKET",
      "city": "KIRIKKALE",
      "city_id": 71,
      "district": "",
      "region": "ic_anadolu",
      "lat": 37.7567,
      "lng": 34.5286,
      "alt": 1078.9,
      "code": "2513",
      "size": "large",
      "popularity": 0.9,
      "ticket_sale": true,
      "passenger_drop": true
    },
    {
      "id": 147,
      "name": "IRMAK",
      "city": "KIRIKKALE",
      "city_id": 71,
      "district": "",
      "region": "ic_anadolu",
      "lat": 39.9322,
      "lng": 33.3903,
      "alt": 681.8,
      "code": "2562",
      "size": "large",
      "popularity": 0.9,
      "ticket_sale": true,
      "passenger_drop": true
    },
    {
      "id": 168,
      "name": "KIRIKKALE",
      "city": "KIRIKKALE",
      "city_id": 71,
      "district": "MERKEZ",
      "region": "ic_anadolu",
      "lat": 39.8378,
      "lng": 33.5031,
      "alt": 709.0,
      "code": "2586",
      "size": "large",
      "popularity": 0.9,
      "ticket_sale": true,
      "passenger_drop": true
    },
    {
      "id": 205,
      "name": "YAHŞİHAN",
      "city": "KIRIKKALE",
      "city_id": 71,
      "district": "",
      "region": "ic_anadolu",
      "lat": 39.8461,
      "lng": 33.4483,
      "alt": 683.7,
      "code": "2634",
      "size": "large",
      "popularity": 0.9,
      "ticket_sale": true,
      "passenger_drop": true
    },
    {
      "id": 119,
      "name": "ÇERİKLİ",
      "city": "KIRIKKALE",
      "city_id": 71,
      "district": "",
      "region": "ic_anadolu",
      "lat": 39.8919,
      "lng": 34.0014,
      "alt": 679.5,
      "code": "2528",
      "size": "large",
      "popularity": 0.9,
      "ticket_sale": true,
      "passenger_drop": true
    },
    {
      "id": 893,
      "name": "AKŞEHİR",
      "city": "KONYA",
      "city_id": 42,
      "district": "AKŞEHİR",
      "region": "ic_anadolu",
      "lat": 38.3694,
      "lng": 31.4414,
      "alt": 997.9,
      "code": "7504",
      "size": "large",
      "popularity": 0.9,
      "ticket_sale": true,
      "passenger_drop": true
    },
    {
      "id": 1110,
      "name": "ARGITHAN",
      "city": "KONYA",
      "city_id": 42,
      "district": "",
      "region": "ic_anadolu",
      "lat": 38.3094,
      "lng": 31.7183,
      "alt": 1088.5,
      "code": "7510",
      "size": "large",
      "popularity": 0.9,
      "ticket_sale": true,
      "passenger_drop": true
    },
    {
      "id": 777,
      "name": "ARIKÖREN",
      "city": "KONYA",
      "city_id": 42,
      "district": "",
      "region": "ic_anadolu",
      "lat": 37.4769,
      "lng": 32.9278,
      "alt": 1018.2,
      "code": "6514",
      "size": "large",
      "popularity": 0.9,
      "ticket_sale": true,
      "passenger_drop": true
    },
    {
      "id": 773,
      "name": "EREĞLİ",
      "city": "KONYA",
      "city_id": 42,
      "district": "EREĞLİ",
      "region": "ic_anadolu",
      "lat": 37.5056,
      "lng": 34.0572,
      "alt": 1055.4,
      "code": "6541",
      "size": "large",
      "popularity": 0.9,
      "ticket_sale": true,
      "passenger_drop": true
    },
    {
      "id": 1111,
      "name": "ILGIN",
      "city": "KONYA",
      "city_id": 42,
      "district": "",
      "region": "ic_anadolu",
      "lat": 37.2906,
      "lng": 31.9103,
      "alt": 1310.7,
      "code": "7587",
      "size": "large",
      "popularity": 0.9,
      "ticket_sale": true,
      "passenger_drop": true
    },
    {
      "id": 924,
      "name": "KADINHAN",
      "city": "KONYA",
      "city_id": 42,
      "district": "",
      "region": "ic_anadolu",
      "lat": 38.3172,
      "lng": 32.1806,
      "alt": 1030.2,
      "code": "7595",
      "size": "large",
      "popularity": 0.9,
      "ticket_sale": true,
      "passenger_drop": true
    },
    {
      "id": 793,
      "name": "KAŞINHAN",
      "city": "KONYA",
      "city_id": 42,
      "district": "",
      "region": "ic_anadolu",
      "lat": 37.7017,
      "lng": 32.5692,
      "alt": 1016.0,
      "code": "6572",
      "size": "large",
      "popularity": 0.9,
      "ticket_sale": true,
      "passenger_drop": true
    },
    {
      "id": 796,
      "name": "KONYA",
      "city": "KONYA",
      "city_id": 42,
      "district": "MERAM",
      "region": "ic_anadolu",
      "lat": 37.8547,
      "lng": 32.4883,
      "alt": 1021.1,
      "code": "6575",
      "size": "large",
      "popularity": 0.9,
      "ticket_sale": true,
      "passenger_drop": true
    },
    {
      "id": 1083,
      "name": "MEYDAN",
      "city": "KONYA",
      "city_id": 42,
      "district": "",
      "region": "ic_anadolu",
      "lat": 38.1992,
      "lng": 32.7953,
      "alt": 1088.1,
      "code": "7642",
      "size": "large",
      "popularity": 0.9,
      "ticket_sale": true,
      "passenger_drop": true
    },
    {
      "id": 950,
      "name": "PINARBAŞI",
      "city": "KONYA",
      "city_id": 42,
      "district": "",
      "region": "ic_anadolu",
      "lat": 38.0372,
      "lng": 32.6044,
      "alt": 1003.5,
      "code": "7648",
      "size": "large",
      "popularity": 0.9,
      "ticket_sale": true,
      "passenger_drop": true
    },
    {
      "id": 955,
      "name": "SARAYÖNÜ",
      "city": "KONYA",
      "city_id": 42,
      "district": "",
      "region": "ic_anadolu",
      "lat": 38.2558,
      "lng": 32.4022,
      "alt": 1068.8,
      "code": "7654",
      "size": "large",
      "popularity": 0.9,
      "ticket_sale": true,
      "passenger_drop": true
    },
    {
      "id": 1336,
      "name": "SELÇUKLU YHT (KONYA)",
      "city": "KONYA",
      "city_id": 42,
      "district": "SELÇUKLU",
      "region": "ic_anadolu",
      "lat": 37.898,
      "lng": 32.498,
      "alt": 1012.8,
      "code": "9800",
      "size": "large",
      "popularity": 0.9,
      "ticket_sale": true,
      "passenger_drop": true
    },
    {
      "id": 768,
      "name": "ÇAKMAK",
      "city": "KONYA",
      "city_id": 42,
      "district": "",
      "region": "ic_anadolu",
      "lat": 37.6236,
      "lng": 34.2875,
      "alt": 1129.7,
      "code": "6532",
      "size": "large",
      "popularity": 0.9,
      "ticket_sale": true,
      "passenger_drop": true
    },
    {
      "id": 892,
      "name": "ÇAVUŞCUGÖL",
      "city": "KONYA",
      "city_id": 42,
      "district": "",
      "region": "ic_anadolu",
      "lat": 38.3794,
      "lng": 31.8464,
      "alt": 1032.2,
      "code": "7547",
      "size": "large",
      "popularity": 0.9,
      "ticket_sale": true,
      "passenger_drop": true
    },
    {
      "id": 770,
      "name": "ÇUMRA",
      "city": "KONYA",
      "city_id": 42,
      "district": "ÇUMRA",
      "region": "ic_anadolu",
      "lat": 37.5356,
      "lng": 32.8422,
      "alt": 1015.9,
      "code": "6537",
      "size": "large",
      "popularity": 0.9,
      "ticket_sale": true,
      "passenger_drop": true
    },
    {
      "id": 915,
      "name": "ÇÖĞÜRLER",
      "city": "KONYA",
      "city_id": 42,
      "district": "",
      "region": "ic_anadolu",
      "lat": 39.2667,
      "lng": 30.1783,
      "alt": 1031.0,
      "code": "7552",
      "size": "large",
      "popularity": 0.9,
      "ticket_sale": true,
      "passenger_drop": true
    },
    {
      "id": 109,
      "name": "BOR",
      "city": "NİĞDE",
      "city_id": 51,
      "district": "",
      "region": "ic_anadolu",
      "lat": 37.8894,
      "lng": 34.5642,
      "alt": 1134.1,
      "code": "2517",
      "size": "large",
      "popularity": 0.9,
      "ticket_sale": true,
      "passenger_drop": true
    },
    {
      "id": 799,
      "name": "GÜMÜŞ",
      "city": "NİĞDE",
      "city_id": 51,
      "district": "",
      "region": "ic_anadolu",
      "lat": 37.5186,
      "lng": 34.6292,
      "alt": 1205.4,
      "code": "6548",
      "size": "large",
      "popularity": 0.9,
      "ticket_sale": true,
      "passenger_drop": true
    },
    {
      "id": 162,
      "name": "HÜYÜK",
      "city": "NİĞDE",
      "city_id": 51,
      "district": "",
      "region": "ic_anadolu",
      "lat": 38.16,
      "lng": 34.9136,
      "alt": 1357.8,
      "code": "2554",
      "size": "large",
      "popularity": 0.9,
      "ticket_sale": true,
      "passenger_drop": true
    },
    {
      "id": 156,
      "name": "KARALAR",
      "city": "NİĞDE",
      "city_id": 51,
      "district": "",
      "region": "ic_anadolu",
      "lat": 37.6147,
      "lng": 34.4844,
      "alt": 1343.3,
      "code": "2572",
      "size": "large",
      "popularity": 0.9,
      "ticket_sale": true,
      "passenger_drop": true
    },
    {
      "id": 185,
      "name": "NİĞDE",
      "city": "NİĞDE",
      "city_id": 51,
      "district": "",
      "region": "ic_anadolu",
      "lat": 37.9661,
      "lng": 34.685,
      "alt": 1218.7,
      "code": "2606",
      "size": "large",
      "popularity": 0.9,
      "ticket_sale": true,
      "passenger_drop": true
    },
    {
      "id": 828,
      "name": "ULUKIŞLA",
      "city": "NİĞDE",
      "city_id": 51,
      "district": "",
      "region": "ic_anadolu",
      "lat": 37.545,
      "lng": 34.4819,
      "alt": 1425.0,
      "code": "6627",
      "size": "large",
      "popularity": 0.9,
      "ticket_sale": true,
      "passenger_drop": true
    },
    {
      "id": 1074,
      "name": "ÇİFTEHAN",
      "city": "NİĞDE",
      "city_id": 51,
      "district": "",
      "region": "ic_anadolu",
      "lat": 37.5114,
      "lng": 34.7744,
      "alt": 950.0,
      "code": "6535",
      "size": "large",
      "popularity": 0.9,
      "ticket_sale": true,
      "passenger_drop": true
    },
    {
      "id": 1067,
      "name": "AKGEDİK",
      "city": "SİVAS",
      "city_id": 58,
      "district": "",
      "region": "ic_anadolu",
      "lat": 39.0428,
      "lng": 37.7344,
      "alt": 1487.0,
      "code": "5503",
      "size": "large",
      "popularity": 0.9,
      "ticket_sale": true,
      "passenger_drop": true
    },
    {
      "id": 487,
      "name": "BEDİRLİ",
      "city": "SİVAS",
      "city_id": 58,
      "district": "",
      "region": "ic_anadolu",
      "lat": 39.5814,
      "lng": 36.6197,
      "alt": 1252.1,
      "code": "4514",
      "size": "large",
      "popularity": 0.9,
      "ticket_sale": true,
      "passenger_drop": true
    },
    {
      "id": 471,
      "name": "BOSTANKAYA",
      "city": "SİVAS",
      "city_id": 58,
      "district": "",
      "region": "ic_anadolu",
      "lat": 39.5019,
      "lng": 37.0094,
      "alt": 1358.0,
      "code": "4518",
      "size": "large",
      "popularity": 0.9,
      "ticket_sale": true,
      "passenger_drop": true
    },
    {
      "id": 477,
      "name": "CÜREK",
      "city": "SİVAS",
      "city_id": 58,
      "district": "",
      "region": "ic_anadolu",
      "lat": 39.4417,
      "lng": 38.0381,
      "alt": 1053.8,
      "code": "4524",
      "size": "large",
      "popularity": 0.9,
      "ticket_sale": true,
      "passenger_drop": true
    },
    {
      "id": 1068,
      "name": "DEMİRİZ",
      "city": "SİVAS",
      "city_id": 58,
      "district": "",
      "region": "ic_anadolu",
      "lat": 39.1644,
      "lng": 37.6878,
      "alt": 1515.0,
      "code": "5519",
      "size": "large",
      "popularity": 0.9,
      "ticket_sale": true,
      "passenger_drop": true
    },
    {
      "id": 620,
      "name": "DUTLUK",
      "city": "SİVAS",
      "city_id": 58,
      "district": "",
      "region": "ic_anadolu",
      "lat": 39.3667,
      "lng": 38.287,
      "alt": 887.3,
      "code": "4810",
      "size": "large",
      "popularity": 0.9,
      "ticket_sale": false,
      "passenger_drop": false
    },
    {
      "id": 1151,
      "name": "DİVRİĞİ",
      "city": "SİVAS",
      "city_id": 58,
      "district": "DİVRİĞİ",
      "region": "ic_anadolu",
      "lat": 39.3867,
      "lng": 39.1122,
      "alt": 2463.3,
      "code": "4544",
      "size": "large",
      "popularity": 0.9,
      "ticket_sale": true,
      "passenger_drop": true
    },
    {
      "id": 652,
      "name": "FIRAT",
      "city": "SİVAS",
      "city_id": 58,
      "district": "",
      "region": "ic_anadolu",
      "lat": 38.4417,
      "lng": 38.5114,
      "alt": 710.7,
      "code": "5533",
      "size": "large",
      "popularity": 0.9,
      "ticket_sale": true,
      "passenger_drop": true
    },
    {
      "id": 510,
      "name": "GÜNEŞ",
      "city": "SİVAS",
      "city_id": 58,
      "district": "",
      "region": "ic_anadolu",
      "lat": 39.3869,
      "lng": 37.8789,
      "alt": 1185.3,
      "code": "4567",
      "size": "large",
      "popularity": 0.9,
      "ticket_sale": true,
      "passenger_drop": true
    },
    {
      "id": 154,
      "name": "GÜRPINAR",
      "city": "SİVAS",
      "city_id": 58,
      "district": "",
      "region": "ic_anadolu",
      "lat": 39.354,
      "lng": 37.1556,
      "alt": 1567.8,
      "code": "4455",
      "size": "large",
      "popularity": 0.9,
      "ticket_sale": false,
      "passenger_drop": true
    },
    {
      "id": 514,
      "name": "HANLI",
      "city": "SİVAS",
      "city_id": 58,
      "district": "",
      "region": "ic_anadolu",
      "lat": 39.4564,
      "lng": 36.6281,
      "alt": 1333.7,
      "code": "4572",
      "size": "large",
      "popularity": 0.9,
      "ticket_sale": true,
      "passenger_drop": true
    },
    {
      "id": 520,
      "name": "KALIN",
      "city": "SİVAS",
      "city_id": 58,
      "district": "",
      "region": "ic_anadolu",
      "lat": 39.6922,
      "lng": 36.7603,
      "alt": 1258.1,
      "code": "4582",
      "size": "large",
      "popularity": 0.9,
      "ticket_sale": true,
      "passenger_drop": true
    },
    {
      "id": 1119,
      "name": "SUBAŞI",
      "city": "SİVAS",
      "city_id": 58,
      "district": "",
      "region": "ic_anadolu",
      "lat": 39.2089,
      "lng": 36.0944,
      "alt": 1155.3,
      "code": "4646",
      "size": "large",
      "popularity": 0.9,
      "ticket_sale": true,
      "passenger_drop": true
    },
    {
      "id": 566,
      "name": "SİVAS",
      "city": "SİVAS",
      "city_id": 58,
      "district": "MERKEZ",
      "region": "ic_anadolu",
      "lat": 39.7378,
      "lng": 37.0042,
      "alt": 1266.5,
      "code": "4642",
      "size": "large",
      "popularity": 0.9,
      "ticket_sale": true,
      "passenger_drop": true
    },
    {
      "id": 420,
      "name": "ULAŞŞEHİR",
      "city": "SİVAS",
      "city_id": 58,
      "district": "",
      "region": "ic_anadolu",
      "lat": 39.443,
      "lng": 37.0358,
      "alt": 1380.0,
      "code": "4411",
      "size": "large",
      "popularity": 0.9,
      "ticket_sale": false,
      "passenger_drop": false
    },
    {
      "id": 502,
      "name": "YENİÇUBUK",
      "city": "SİVAS",
      "city_id": 58,
      "district": "",
      "region": "ic_anadolu",
      "lat": 39.2108,
      "lng": 36.0917,
      "alt": 1159.1,
      "code": "4558",
      "size": "large",
      "popularity": 0.9,
      "ticket_sale": true,
      "passenger_drop": true
    },
    {
      "id": 586,
      "name": "YILDIZELİ",
      "city": "SİVAS",
      "city_id": 58,
      "district": "",
      "region": "ic_anadolu",
      "lat": 39.8681,
      "lng": 36.5947,
      "alt": 1359.9,
      "code": "4670",
      "size": "large",
      "popularity": 0.9,
      "ticket_sale": true,
      "passenger_drop": true
    },
    {
      "id": 1389,
      "name": "YILDIZELİ YHT",
      "city": "SİVAS",
      "city_id": 58,
      "district": "YILDIZELİ",
      "region": "ic_anadolu",
      "lat": 39.8586,
      "lng": 36.5614,
      "alt": 1383.2,
      "code": "9408",
      "size": "large",
      "popularity": 0.9,
      "ticket_sale": false,
      "passenger_drop": true
    },
    {
      "id": 484,
      "name": "ÇETİNKAYA",
      "city": "SİVAS",
      "city_id": 58,
      "district": "DİVRİĞİ",
      "region": "ic_anadolu",
      "lat": 39.25,
      "lng": 37.6086,
      "alt": 1418.9,
      "code": "4533",
      "size": "large",
      "popularity": 0.9,
      "ticket_sale": true,
      "passenger_drop": true
    },
    {
      "id": 638,
      "name": "ÇİĞDEM",
      "city": "SİVAS",
      "city_id": 58,
      "district": "",
      "region": "ic_anadolu",
      "lat": 39.3419,
      "lng": 38.2315,
      "alt": 925.7,
      "code": "4836",
      "size": "large",
      "popularity": 0.9,
      "ticket_sale": false,
      "passenger_drop": true
    },
    {
      "id": 571,
      "name": "ŞARKIŞLA",
      "city": "SİVAS",
      "city_id": 58,
      "district": "ŞARKIŞLA",
      "region": "ic_anadolu",
      "lat": 39.3653,
      "lng": 36.4003,
      "alt": 1226.2,
      "code": "4649",
      "size": "large",
      "popularity": 0.9,
      "ticket_sale": true,
      "passenger_drop": true
    },
    {
      "id": 1378,
      "name": "AKDAĞMADENİ YHT",
      "city": "YOZGAT",
      "city_id": 66,
      "district": "AKDAĞMADENİ",
      "region": "ic_anadolu",
      "lat": 39.7817,
      "lng": 35.8918,
      "alt": 1104.8,
      "code": "9407",
      "size": "large",
      "popularity": 0.9,
      "ticket_sale": false,
      "passenger_drop": true
    },
    {
      "id": 115,
      "name": "SARIKENT",
      "city": "YOZGAT",
      "city_id": 66,
      "district": "",
      "region": "ic_anadolu",
      "lat": 39.3747,
      "lng": 34.7822,
      "alt": 943.0,
      "code": "2523",
      "size": "large",
      "popularity": 0.9,
      "ticket_sale": true,
      "passenger_drop": true
    },
    {
      "id": 1377,
      "name": "SORGUN YHT",
      "city": "YOZGAT",
      "city_id": 66,
      "district": "SORGUN",
      "region": "ic_anadolu",
      "lat": 39.8267,
      "lng": 35.1586,
      "alt": 1126.9,
      "code": "9406",
      "size": "large",
      "popularity": 0.9,
      "ticket_sale": false,
      "passenger_drop": true
    },
    {
      "id": 127,
      "name": "YENİFAKILI",
      "city": "YOZGAT",
      "city_id": 66,
      "district": "",
      "region": "ic_anadolu",
      "lat": 39.2122,
      "lng": 35.0025,
      "alt": 1014.1,
      "code": "2538",
      "size": "large",
      "popularity": 0.9,
      "ticket_sale": true,
      "passenger_drop": true
    },
    {
      "id": 209,
      "name": "YERKÖY",
      "city": "YOZGAT",
      "city_id": 66,
      "district": "YERKÖY",
      "region": "ic_anadolu",
      "lat": 39.6383,
      "lng": 34.47,
      "alt": 767.2,
      "code": "2638",
      "size": "large",
      "popularity": 0.9,
      "ticket_sale": true,
      "passenger_drop": true
    },
    {
      "id": 1390,
      "name": "YERKÖY YHT",
      "city": "YOZGAT",
      "city_id": 66,
      "district": "YERKÖY",
      "region": "ic_anadolu",
      "lat": 39.6867,
      "lng": 34.4656,
      "alt": 777.7,
      "code": "9404",
      "size": "large",
      "popularity": 0.9,
      "ticket_sale": false,
      "passenger_drop": false
    },
    {
      "id": 194,
      "name": "ŞEFAATLİ",
      "city": "YOZGAT",
      "city_id": 66,
      "district": "",
      "region": "ic_anadolu",
      "lat": 39.4981,
      "lng": 34.7508,
      "alt": 909.8,
      "code": "2621",
      "size": "large",
      "popularity": 0.9,
      "ticket_sale": true,
      "passenger_drop": true
    },
    {
      "id": 461,
      "name": "AMASYA",
      "city": "AMASYA",
      "city_id": 5,
      "district": "MERKEZ",
      "region": "karadeniz",
      "lat": 40.6539,
      "lng": 36.0231,
      "alt": 1306.6,
      "code": "4505",
      "size": "large",
      "popularity": 0.9,
      "ticket_sale": true,
      "passenger_drop": true
    },
    {
      "id": 611,
      "name": "AYAZ",
      "city": "AMASYA",
      "city_id": 5,
      "district": "",
      "region": "karadeniz",
      "lat": 40.8252,
      "lng": 35.64,
      "alt": 521.6,
      "code": "4828",
      "size": "large",
      "popularity": 0.9,
      "ticket_sale": false,
      "passenger_drop": false
    },
    {
      "id": 469,
      "name": "BORSA",
      "city": "AMASYA",
      "city_id": 5,
      "district": "",
      "region": "karadeniz",
      "lat": 40.838,
      "lng": 35.6387,
      "alt": 528.2,
      "code": "4446",
      "size": "large",
      "popularity": 0.9,
      "ticket_sale": false,
      "passenger_drop": false
    },
    {
      "id": 470,
      "name": "BOĞAZKÖY",
      "city": "AMASYA",
      "city_id": 5,
      "district": "",
      "region": "karadeniz",
      "lat": 40.7344,
      "lng": 35.7733,
      "alt": 440.5,
      "code": "4517",
      "size": "large",
      "popularity": 0.9,
      "ticket_sale": true,
      "passenger_drop": true
    },
    {
      "id": 511,
      "name": "HACIBAYRAM",
      "city": "AMASYA",
      "city_id": 5,
      "district": "",
      "region": "karadeniz",
      "lat": 40.8539,
      "lng": 35.6336,
      "alt": 536.7,
      "code": "4568",
      "size": "large",
      "popularity": 0.9,
      "ticket_sale": true,
      "passenger_drop": true
    },
    {
      "id": 534,
      "name": "KAYABAŞI",
      "city": "AMASYA",
      "city_id": 5,
      "district": "",
      "region": "karadeniz",
      "lat": 40.5736,
      "lng": 35.7567,
      "alt": 416.6,
      "code": "4598",
      "size": "large",
      "popularity": 0.9,
      "ticket_sale": true,
      "passenger_drop": true
    },
    {
      "id": 482,
      "name": "KÖMÜR İŞLETMELERİ",
      "city": "AMASYA",
      "city_id": 5,
      "district": "",
      "region": "karadeniz",
      "lat": 40.8717,
      "lng": 35.6351,
      "alt": 547.5,
      "code": "4531",
      "size": "large",
      "popularity": 0.9,
      "ticket_sale": false,
      "passenger_drop": false
    },
    {
      "id": 569,
      "name": "SULUOVA",
      "city": "AMASYA",
      "city_id": 5,
      "district": "SULUOVA",
      "region": "karadeniz",
      "lat": 40.8158,
      "lng": 35.6578,
      "alt": 521.0,
      "code": "4647",
      "size": "large",
      "popularity": 0.9,
      "ticket_sale": true,
      "passenger_drop": true
    },
    {
      "id": 552,
      "name": "ÖZEL İDARE",
      "city": "AMASYA",
      "city_id": 5,
      "district": "",
      "region": "karadeniz",
      "lat": 40.6647,
      "lng": 35.8328,
      "alt": 416.3,
      "code": "4622",
      "size": "large",
      "popularity": 0.9,
      "ticket_sale": false,
      "passenger_drop": false
    },
    {
      "id": 104,
      "name": "BALIKISIK",
      "city": "KARABÜK",
      "city_id": 78,
      "district": "",
      "region": "karadeniz",
      "lat": 41.1994,
      "lng": 32.3919,
      "alt": 179.7,
      "code": "2510",
      "size": "large",
      "popularity": 0.9,
      "ticket_sale": true,
      "passenger_drop": true
    },
    {
      "id": 1041,
      "name": "BOLKUŞ",
      "city": "KARABÜK",
      "city_id": 78,
      "district": "",
      "region": "karadeniz",
      "lat": 41.1617,
      "lng": 32.5172,
      "alt": 216.5,
      "code": "2516",
      "size": "large",
      "popularity": 0.9,
      "ticket_sale": true,
      "passenger_drop": false
    },
    {
      "id": 153,
      "name": "KARABÜK",
      "city": "KARABÜK",
      "city_id": 78,
      "district": "MERKEZ",
      "region": "karadeniz",
      "lat": 41.1964,
      "lng": 32.6119,
      "alt": 265.5,
      "code": "2569",
      "size": "large",
      "popularity": 0.9,
      "ticket_sale": true,
      "passenger_drop": true
    },
    {
      "id": 161,
      "name": "KAYADİBİ",
      "city": "KARABÜK",
      "city_id": 78,
      "district": "",
      "region": "karadeniz",
      "lat": 41.2361,
      "lng": 32.2036,
      "alt": 99.7,
      "code": "2577",
      "size": "large",
      "popularity": 0.9,
      "ticket_sale": true,
      "passenger_drop": true
    },
    {
      "id": 220,
      "name": "YEŞİLYENİCE",
      "city": "KARABÜK",
      "city_id": 78,
      "district": "",
      "region": "karadeniz",
      "lat": 41.2067,
      "lng": 32.3186,
      "alt": 145.6,
      "code": "2627",
      "size": "large",
      "popularity": 0.9,
      "ticket_sale": true,
      "passenger_drop": true
    },
    {
      "id": 490,
      "name": "BOĞAZİÇİ",
      "city": "SAMSUN",
      "city_id": 55,
      "district": "",
      "region": "karadeniz",
      "lat": 41.1364,
      "lng": 36.1783,
      "alt": 359.5,
      "code": "4541",
      "size": "large",
      "popularity": 0.9,
      "ticket_sale": false,
      "passenger_drop": true
    },
    {
      "id": 516,
      "name": "HAVZA",
      "city": "SAMSUN",
      "city_id": 55,
      "district": "HAVZA",
      "region": "karadeniz",
      "lat": 40.9656,
      "lng": 35.6675,
      "alt": 623.2,
      "code": "4574",
      "size": "large",
      "popularity": 0.9,
      "ticket_sale": true,
      "passenger_drop": true
    },
    {
      "id": 533,
      "name": "KAVAK",
      "city": "SAMSUN",
      "city_id": 55,
      "district": "",
      "region": "karadeniz",
      "lat": 41.0572,
      "lng": 35.9714,
      "alt": 610.9,
      "code": "4596",
      "size": "large",
      "popularity": 0.9,
      "ticket_sale": true,
      "passenger_drop": true
    },
    {
      "id": 565,
      "name": "LADİK",
      "city": "SAMSUN",
      "city_id": 55,
      "district": "",
      "region": "karadeniz",
      "lat": 41.0128,
      "lng": 35.8678,
      "alt": 889.8,
      "code": "4615",
      "size": "large",
      "popularity": 0.9,
      "ticket_sale": true,
      "passenger_drop": true
    },
    {
      "id": 549,
      "name": "MEŞELİDÜZ",
      "city": "SAMSUN",
      "city_id": 55,
      "district": "",
      "region": "karadeniz",
      "lat": 41.1575,
      "lng": 36.2044,
      "alt": 263.4,
      "code": "4618",
      "size": "large",
      "popularity": 0.9,
      "ticket_sale": true,
      "passenger_drop": true
    },
    {
      "id": 557,
      "name": "SAMSUN",
      "city": "SAMSUN",
      "city_id": 55,
      "district": "İLKADIM",
      "region": "karadeniz",
      "lat": 41.2806,
      "lng": 36.3492,
      "alt": 5.4,
      "code": "4630",
      "size": "large",
      "popularity": 0.9,
      "ticket_sale": true,
      "passenger_drop": true
    },
    {
      "id": 424,
      "name": "ÇELİKALAN",
      "city": "SAMSUN",
      "city_id": 55,
      "district": "",
      "region": "karadeniz",
      "lat": 41.1576,
      "lng": 36.2043,
      "alt": 264.3,
      "code": "4415",
      "size": "large",
      "popularity": 0.9,
      "ticket_sale": false,
      "passenger_drop": true
    },
    {
      "id": 505,
      "name": "ÇUKURBÜK",
      "city": "SAMSUN",
      "city_id": 55,
      "district": "",
      "region": "karadeniz",
      "lat": 41.0778,
      "lng": 36.1542,
      "alt": 462.3,
      "code": "4536",
      "size": "large",
      "popularity": 0.9,
      "ticket_sale": true,
      "passenger_drop": true
    },
    {
      "id": 921,
      "name": "ÇİFTLİK",
      "city": "SAMSUN",
      "city_id": 55,
      "district": "",
      "region": "karadeniz",
      "lat": 41.1079,
      "lng": 36.1605,
      "alt": 406.6,
      "code": "4409",
      "size": "large",
      "popularity": 0.9,
      "ticket_sale": false,
      "passenger_drop": true
    },
    {
      "id": 462,
      "name": "ARTOVA",
      "city": "TOKAT",
      "city_id": 60,
      "district": "",
      "region": "karadeniz",
      "lat": 40.115,
      "lng": 36.3008,
      "alt": 1177.7,
      "code": "4507",
      "size": "large",
      "popularity": 0.9,
      "ticket_sale": true,
      "passenger_drop": true
    },
    {
      "id": 600,
      "name": "GÜMÜŞYURT",
      "city": "TOKAT",
      "city_id": 60,
      "district": "",
      "region": "karadeniz",
      "lat": 40.1547,
      "lng": 36.1714,
      "alt": 1124.5,
      "code": "4662",
      "size": "large",
      "popularity": 0.9,
      "ticket_sale": true,
      "passenger_drop": true
    },
    {
      "id": 582,
      "name": "GÜZELBEYLİ",
      "city": "TOKAT",
      "city_id": 60,
      "district": "",
      "region": "karadeniz",
      "lat": 40.15,
      "lng": 36.0064,
      "alt": 951.5,
      "code": "4641",
      "size": "large",
      "popularity": 0.9,
      "ticket_sale": true,
      "passenger_drop": true
    },
    {
      "id": 539,
      "name": "KIZOĞLU",
      "city": "TOKAT",
      "city_id": 60,
      "district": "",
      "region": "karadeniz",
      "lat": 40.4936,
      "lng": 35.8825,
      "alt": 470.9,
      "code": "4604",
      "size": "large",
      "popularity": 0.9,
      "ticket_sale": true,
      "passenger_drop": true
    },
    {
      "id": 1395,
      "name": "TOKAT",
      "city": "TOKAT",
      "city_id": 60,
      "district": "",
      "region": "karadeniz",
      "lat": 40.3326,
      "lng": 36.5536,
      "alt": 598.5,
      "code": "0024",
      "size": "small",
      "popularity": 0.3,
      "ticket_sale": false,
      "passenger_drop": true
    },
    {
      "id": 551,
      "name": "TOKAT(YEŞİLYURT)",
      "city": "TOKAT",
      "city_id": 60,
      "district": "",
      "region": "karadeniz",
      "lat": 40.0086,
      "lng": 31.2192,
      "alt": 1276.2,
      "code": "4620",
      "size": "large",
      "popularity": 0.9,
      "ticket_sale": true,
      "passenger_drop": true
    },
    {
      "id": 1158,
      "name": "TURHAL",
      "city": "TOKAT",
      "city_id": 60,
      "district": "TURHAL",
      "region": "karadeniz",
      "lat": 40.3894,
      "lng": 36.0775,
      "alt": 540.1,
      "code": "4658",
      "size": "large",
      "popularity": 0.9,
      "ticket_sale": true,
      "passenger_drop": true
    },
    {
      "id": 587,
      "name": "ZİLE",
      "city": "TOKAT",
      "city_id": 60,
      "district": "",
      "region": "karadeniz",
      "lat": 40.2828,
      "lng": 35.9319,
      "alt": 664.4,
      "code": "4673",
      "size": "large",
      "popularity": 0.9,
      "ticket_sale": true,
      "passenger_drop": true
    },
    {
      "id": 129,
      "name": "FİLYOS",
      "city": "ZONGULDAK",
      "city_id": 67,
      "district": "MERKEZ",
      "region": "karadeniz",
      "lat": 41.56,
      "lng": 32.0214,
      "alt": 8.4,
      "code": "2540",
      "size": "large",
      "popularity": 0.9,
      "ticket_sale": true,
      "passenger_drop": true
    },
    {
      "id": 1162,
      "name": "GÖKÇEBEY",
      "city": "ZONGULDAK",
      "city_id": 67,
      "district": "",
      "region": "karadeniz",
      "lat": 41.3078,
      "lng": 32.1383,
      "alt": 71.8,
      "code": "2624",
      "size": "large",
      "popularity": 0.9,
      "ticket_sale": true,
      "passenger_drop": true
    },
    {
      "id": 1196,
      "name": "HAVALİMANI DURAĞI",
      "city": "ZONGULDAK",
      "city_id": 67,
      "district": "",
      "region": "karadeniz",
      "lat": 41.5197,
      "lng": 32.0933,
      "alt": 15.3,
      "code": "2590",
      "size": "large",
      "popularity": 0.9,
      "ticket_sale": true,
      "passenger_drop": true
    },
    {
      "id": 148,
      "name": "IŞIKVEREN",
      "city": "ZONGULDAK",
      "city_id": 67,
      "district": "",
      "region": "karadeniz",
      "lat": 41.5133,
      "lng": 31.8931,
      "alt": 15.6,
      "code": "2563",
      "size": "large",
      "popularity": 0.9,
      "ticket_sale": true,
      "passenger_drop": true
    },
    {
      "id": 166,
      "name": "KİLİMLİ",
      "city": "ZONGULDAK",
      "city_id": 67,
      "district": "",
      "region": "karadeniz",
      "lat": 41.4892,
      "lng": 31.8397,
      "alt": 13.0,
      "code": "2584",
      "size": "large",
      "popularity": 0.9,
      "ticket_sale": true,
      "passenger_drop": true
    },
    {
      "id": 170,
      "name": "SALTUKOVA",
      "city": "ZONGULDAK",
      "city_id": 67,
      "district": "",
      "region": "karadeniz",
      "lat": 41.5197,
      "lng": 32.0933,
      "alt": 15.3,
      "code": "2589",
      "size": "large",
      "popularity": 0.9,
      "ticket_sale": true,
      "passenger_drop": true
    },
    {
      "id": 212,
      "name": "ZONGULDAK",
      "city": "ZONGULDAK",
      "city_id": 67,
      "district": "MERKEZ",
      "region": "karadeniz",
      "lat": 41.4475,
      "lng": 31.7944,
      "alt": 21.0,
      "code": "2641",
      "size": "large",
      "popularity": 0.9,
      "ticket_sale": true,
      "passenger_drop": true
    },
    {
      "id": 118,
      "name": "ÇATALAĞZI",
      "city": "ZONGULDAK",
      "city_id": 67,
      "district": "",
      "region": "karadeniz",
      "lat": 41.4997,
      "lng": 31.8747,
      "alt": 17.9,
      "code": "2526",
      "size": "large",
      "popularity": 0.9,
      "ticket_sale": true,
      "passenger_drop": true
    },
    {
      "id": 1098,
      "name": "ÇAYCUMA",
      "city": "ZONGULDAK",
      "city_id": 67,
      "district": "",
      "region": "karadeniz",
      "lat": 41.4253,
      "lng": 32.0956,
      "alt": 25.5,
      "code": "2527",
      "size": "large",
      "popularity": 0.9,
      "ticket_sale": true,
      "passenger_drop": true
    },
    {
      "id": 1406,
      "name": "GÜMÜŞDÖVEN",
      "city": "ÇANKIRI",
      "city_id": 18,
      "district": "KORGUN",
      "region": "karadeniz",
      "lat": 40.6911,
      "lng": 33.5355,
      "alt": 845.6,
      "code": "2505",
      "size": "small",
      "popularity": 0.3,
      "ticket_sale": false,
      "passenger_drop": true
    },
    {
      "id": 1407,
      "name": "KURTÇİMENİ",
      "city": "ÇANKIRI",
      "city_id": 18,
      "district": "ÇERKEŞ",
      "region": "karadeniz",
      "lat": 40.8412,
      "lng": 32.7599,
      "alt": 1093.7,
      "code": "2595",
      "size": "small",
      "popularity": 0.3,
      "ticket_sale": false,
      "passenger_drop": true
    },
    {
      "id": 197,
      "name": "TÜNEY",
      "city": "ÇANKIRI",
      "city_id": 18,
      "district": "",
      "region": "karadeniz",
      "lat": 40.3572,
      "lng": 33.5261,
      "alt": 704.9,
      "code": "2625",
      "size": "large",
      "popularity": 0.9,
      "ticket_sale": true,
      "passenger_drop": true
    },
    {
      "id": 116,
      "name": "ÇANKIRI",
      "city": "ÇANKIRI",
      "city_id": 18,
      "district": "",
      "region": "karadeniz",
      "lat": 40.5861,
      "lng": 33.6228,
      "alt": 714.1,
      "code": "2524",
      "size": "large",
      "popularity": 0.9,
      "ticket_sale": true,
      "passenger_drop": true
    },
    {
      "id": 1408,
      "name": "ÇERKEŞ",
      "city": "ÇANKIRI",
      "city_id": 18,
      "district": "ÇERKEŞ",
      "region": "karadeniz",
      "lat": 40.8109,
      "lng": 32.8854,
      "alt": 1122.1,
      "code": "2529",
      "size": "small",
      "popularity": 0.3,
      "ticket_sale": false,
      "passenger_drop": true
    },
    {
      "id": 281,
      "name": "AKSAKAL",
      "city": "BALIKESİR",
      "city_id": 10,
      "district": "",
      "region": "marmara",
      "lat": 40.145,
      "lng": 28.0892,
      "alt": 73.9,
      "code": "3508",
      "size": "large",
      "popularity": 0.9,
      "ticket_sale": true,
      "passenger_drop": true
    },
    {
      "id": 1159,
      "name": "BALIKESİR",
      "city": "BALIKESİR",
      "city_id": 10,
      "district": "",
      "region": "marmara",
      "lat": 39.6485,
      "lng": 27.8914,
      "alt": 132.2,
      "code": "3528",
      "size": "large",
      "popularity": 0.9,
      "ticket_sale": false,
      "passenger_drop": true
    },
    {
      "id": 293,
      "name": "BANDIRMA ŞEHİR",
      "city": "BALIKESİR",
      "city_id": 10,
      "district": "",
      "region": "marmara",
      "lat": 40.3506,
      "lng": 27.96,
      "alt": 4.8,
      "code": "3533",
      "size": "large",
      "popularity": 0.9,
      "ticket_sale": true,
      "passenger_drop": true
    },
    {
      "id": 905,
      "name": "DURSUNBEY",
      "city": "BALIKESİR",
      "city_id": 10,
      "district": "",
      "region": "marmara",
      "lat": 39.5883,
      "lng": 28.6328,
      "alt": 622.7,
      "code": "7566",
      "size": "large",
      "popularity": 0.9,
      "ticket_sale": true,
      "passenger_drop": true
    },
    {
      "id": 909,
      "name": "GAZELLİDERE",
      "city": "BALIKESİR",
      "city_id": 10,
      "district": "",
      "region": "marmara",
      "lat": 39.545,
      "lng": 28.4694,
      "alt": 608.1,
      "code": "7572",
      "size": "large",
      "popularity": 0.9,
      "ticket_sale": true,
      "passenger_drop": true
    },
    {
      "id": 302,
      "name": "KUŞCENNETİ",
      "city": "BALIKESİR",
      "city_id": 10,
      "district": "",
      "region": "marmara",
      "lat": 40.3247,
      "lng": 27.9906,
      "alt": 47.3,
      "code": "3557",
      "size": "large",
      "popularity": 0.9,
      "ticket_sale": true,
      "passenger_drop": true
    },
    {
      "id": 945,
      "name": "MEZİTLER",
      "city": "BALIKESİR",
      "city_id": 10,
      "district": "",
      "region": "marmara",
      "lat": 39.5489,
      "lng": 28.3086,
      "alt": 253.9,
      "code": "7643",
      "size": "large",
      "popularity": 0.9,
      "ticket_sale": true,
      "passenger_drop": true
    },
    {
      "id": 947,
      "name": "NUSRAT",
      "city": "BALIKESİR",
      "city_id": 10,
      "district": "",
      "region": "marmara",
      "lat": 39.6831,
      "lng": 28.1483,
      "alt": 83.6,
      "code": "7645",
      "size": "large",
      "popularity": 0.9,
      "ticket_sale": true,
      "passenger_drop": true
    },
    {
      "id": 391,
      "name": "SAVAŞTEPE",
      "city": "BALIKESİR",
      "city_id": 10,
      "district": "",
      "region": "marmara",
      "lat": 39.3897,
      "lng": 27.6508,
      "alt": 250.7,
      "code": "3718",
      "size": "large",
      "popularity": 0.9,
      "ticket_sale": true,
      "passenger_drop": true
    },
    {
      "id": 377,
      "name": "SOĞUCAK",
      "city": "BALIKESİR",
      "city_id": 10,
      "district": "",
      "region": "marmara",
      "lat": 39.5186,
      "lng": 27.6703,
      "alt": 422.0,
      "code": "3727",
      "size": "large",
      "popularity": 0.9,
      "ticket_sale": true,
      "passenger_drop": true
    },
    {
      "id": 379,
      "name": "SUSURLUK",
      "city": "BALIKESİR",
      "city_id": 10,
      "district": "",
      "region": "marmara",
      "lat": 39.9275,
      "lng": 28.1536,
      "alt": 39.0,
      "code": "3736",
      "size": "large",
      "popularity": 0.9,
      "ticket_sale": true,
      "passenger_drop": true
    },
    {
      "id": 958,
      "name": "SİNDİRLER",
      "city": "BALIKESİR",
      "city_id": 10,
      "district": "",
      "region": "marmara",
      "lat": 39.6,
      "lng": 28.75,
      "alt": 332.7,
      "code": "7661",
      "size": "large",
      "popularity": 0.9,
      "ticket_sale": true,
      "passenger_drop": true
    },
    {
      "id": 400,
      "name": "YENİKÖY",
      "city": "BALIKESİR",
      "city_id": 10,
      "district": "",
      "region": "marmara",
      "lat": 39.7894,
      "lng": 28.0103,
      "alt": 235.1,
      "code": "3764",
      "size": "large",
      "popularity": 0.9,
      "ticket_sale": true,
      "passenger_drop": true
    },
    {
      "id": 308,
      "name": "ÇUKURHÜSEYİN",
      "city": "BALIKESİR",
      "city_id": 10,
      "district": "",
      "region": "marmara",
      "lat": 39.5706,
      "lng": 27.7522,
      "alt": 186.0,
      "code": "3575",
      "size": "large",
      "popularity": 0.9,
      "ticket_sale": true,
      "passenger_drop": true
    },
    {
      "id": 1201,
      "name": "PİRİBEYLER",
      "city": "BURSA",
      "city_id": 16,
      "district": "",
      "region": "marmara",
      "lat": 39.6333,
      "lng": 28.8,
      "alt": 359.8,
      "code": "7649",
      "size": "large",
      "popularity": 0.9,
      "ticket_sale": true,
      "passenger_drop": true
    },
    {
      "id": 13,
      "name": "BOZÜYÜK",
      "city": "BİLECİK",
      "city_id": 11,
      "district": "",
      "region": "marmara",
      "lat": 39.9053,
      "lng": 30.0378,
      "alt": 744.9,
      "code": "1523",
      "size": "large",
      "popularity": 0.9,
      "ticket_sale": true,
      "passenger_drop": true
    },
    {
      "id": 1145,
      "name": "BOZÜYÜK YHT",
      "city": "BİLECİK",
      "city_id": 11,
      "district": "BOZÜYÜK",
      "region": "marmara",
      "lat": 39.8806,
      "lng": 30.0436,
      "alt": 800.5,
      "code": "1715",
      "size": "large",
      "popularity": 0.9,
      "ticket_sale": true,
      "passenger_drop": true
    },
    {
      "id": 9,
      "name": "BİLECİK",
      "city": "BİLECİK",
      "city_id": 11,
      "district": "",
      "region": "marmara",
      "lat": 40.1161,
      "lng": 30.0008,
      "alt": 299.0,
      "code": "1520",
      "size": "large",
      "popularity": 0.9,
      "ticket_sale": true,
      "passenger_drop": true
    },
    {
      "id": 1142,
      "name": "BİLECİK YHT",
      "city": "BİLECİK",
      "city_id": 11,
      "district": "MERKEZ",
      "region": "marmara",
      "lat": 40.1357,
      "lng": 30.0095,
      "alt": 270.6,
      "code": "1712",
      "size": "large",
      "popularity": 0.9,
      "ticket_sale": true,
      "passenger_drop": true
    },
    {
      "id": 50,
      "name": "KARAKÖY",
      "city": "BİLECİK",
      "city_id": 11,
      "district": "",
      "region": "marmara",
      "lat": 40.0011,
      "lng": 30.0078,
      "alt": 630.0,
      "code": "1577",
      "size": "large",
      "popularity": 0.9,
      "ticket_sale": true,
      "passenger_drop": true
    },
    {
      "id": 45,
      "name": "OSMANELİ",
      "city": "BİLECİK",
      "city_id": 11,
      "district": "",
      "region": "marmara",
      "lat": 40.365,
      "lng": 30.0278,
      "alt": 103.3,
      "code": "1606",
      "size": "large",
      "popularity": 0.9,
      "ticket_sale": true,
      "passenger_drop": true
    },
    {
      "id": 58,
      "name": "VEZİRHAN",
      "city": "BİLECİK",
      "city_id": 11,
      "district": "",
      "region": "marmara",
      "lat": 40.2478,
      "lng": 30.0278,
      "alt": 151.0,
      "code": "1639",
      "size": "large",
      "popularity": 0.9,
      "ticket_sale": true,
      "passenger_drop": true
    },
    {
      "id": 1006,
      "name": "EDİRNE",
      "city": "EDİRNE",
      "city_id": 22,
      "district": "MERKEZ",
      "region": "marmara",
      "lat": 41.65,
      "lng": 26.5889,
      "alt": 36.2,
      "code": "8517",
      "size": "large",
      "popularity": 0.9,
      "ticket_sale": true,
      "passenger_drop": true
    },
    {
      "id": 1032,
      "name": "KAPIKULE",
      "city": "EDİRNE",
      "city_id": 22,
      "district": "MERKEZ",
      "region": "marmara",
      "lat": 41.7189,
      "lng": 26.3617,
      "alt": 49.5,
      "code": "8593",
      "size": "large",
      "popularity": 0.9,
      "ticket_sale": true,
      "passenger_drop": true
    },
    {
      "id": 1015,
      "name": "UZUNKÖPRÜ",
      "city": "EDİRNE",
      "city_id": 22,
      "district": "UZUNKÖPRÜ",
      "region": "marmara",
      "lat": 41.2975,
      "lng": 26.6886,
      "alt": 32.6,
      "code": "8560",
      "size": "large",
      "popularity": 0.9,
      "ticket_sale": true,
      "passenger_drop": true
    },
    {
      "id": 1040,
      "name": "ALPU",
      "city": "ESKİŞEHİR",
      "city_id": 26,
      "district": "",
      "region": "marmara",
      "lat": 39.7669,
      "lng": 30.955,
      "alt": 766.1,
      "code": "2431",
      "size": "large",
      "popularity": 0.9,
      "ticket_sale": true,
      "passenger_drop": true
    },
    {
      "id": 108,
      "name": "BEYLİKOVA",
      "city": "ESKİŞEHİR",
      "city_id": 26,
      "district": "",
      "region": "marmara",
      "lat": 39.705,
      "lng": 31.1894,
      "alt": 760.5,
      "code": "2429",
      "size": "large",
      "popularity": 0.9,
      "ticket_sale": true,
      "passenger_drop": true
    },
    {
      "id": 87,
      "name": "BİÇER",
      "city": "ESKİŞEHİR",
      "city_id": 26,
      "district": "",
      "region": "marmara",
      "lat": 39.6956,
      "lng": 31.6944,
      "alt": 707.9,
      "code": "2424",
      "size": "large",
      "popularity": 0.9,
      "ticket_sale": true,
      "passenger_drop": true
    },
    {
      "id": 93,
      "name": "ESKİŞEHİR",
      "city": "ESKİŞEHİR",
      "city_id": 26,
      "district": "TEPEBAŞI",
      "region": "marmara",
      "lat": 39.7789,
      "lng": 30.5008,
      "alt": 789.9,
      "code": "2435",
      "size": "large",
      "popularity": 0.9,
      "ticket_sale": false,
      "passenger_drop": true
    },
    {
      "id": 911,
      "name": "GÖKÇEKISIK",
      "city": "ESKİŞEHİR",
      "city_id": 26,
      "district": "",
      "region": "marmara",
      "lat": 39.6547,
      "lng": 30.3867,
      "alt": 831.0,
      "code": "7576",
      "size": "large",
      "popularity": 0.9,
      "ticket_sale": true,
      "passenger_drop": true
    },
    {
      "id": 107,
      "name": "YUNUSEMRE",
      "city": "ESKİŞEHİR",
      "city_id": 26,
      "district": "",
      "region": "marmara",
      "lat": 39.7006,
      "lng": 31.4783,
      "alt": 738.5,
      "code": "2426",
      "size": "large",
      "popularity": 0.9,
      "ticket_sale": true,
      "passenger_drop": true
    },
    {
      "id": 976,
      "name": "ALPULLU",
      "city": "KIRKLARELİ",
      "city_id": 39,
      "district": "",
      "region": "marmara",
      "lat": 41.3667,
      "lng": 27.145,
      "alt": 43.8,
      "code": "8502",
      "size": "large",
      "popularity": 0.9,
      "ticket_sale": true,
      "passenger_drop": true
    },
    {
      "id": 1128,
      "name": "LÜLEBURGAZ",
      "city": "KIRKLARELİ",
      "city_id": 39,
      "district": "LÜLEBURGAZ",
      "region": "marmara",
      "lat": 41.3564,
      "lng": 27.3331,
      "alt": 48.2,
      "code": "8542",
      "size": "large",
      "popularity": 0.9,
      "ticket_sale": true,
      "passenger_drop": true
    },
    {
      "id": 1009,
      "name": "PEHLİVANKÖY",
      "city": "KIRKLARELİ",
      "city_id": 39,
      "district": "",
      "region": "marmara",
      "lat": 41.3525,
      "lng": 26.9864,
      "alt": 24.1,
      "code": "8550",
      "size": "large",
      "popularity": 0.9,
      "ticket_sale": true,
      "passenger_drop": true
    },
    {
      "id": 20,
      "name": "GEBZE",
      "city": "KOCAELİ",
      "city_id": 41,
      "district": "GEBZE",
      "region": "marmara",
      "lat": 40.7864,
      "lng": 29.4056,
      "alt": 66.7,
      "code": "1552",
      "size": "large",
      "popularity": 0.9,
      "ticket_sale": true,
      "passenger_drop": true
    },
    {
      "id": 1394,
      "name": "KIRKİKİEVLER HT",
      "city": "KOCAELİ",
      "city_id": 41,
      "district": "KÖRFEZ",
      "region": "marmara",
      "lat": 40.7621,
      "lng": 29.9444,
      "alt": 0.1,
      "code": "1717",
      "size": "small",
      "popularity": 0.3,
      "ticket_sale": false,
      "passenger_drop": false
    },
    {
      "id": 1113,
      "name": "KÖSEKÖY",
      "city": "KOCAELİ",
      "city_id": 41,
      "district": "",
      "region": "marmara",
      "lat": 40.7497,
      "lng": 30.0078,
      "alt": 5.5,
      "code": "1588",
      "size": "large",
      "popularity": 0.9,
      "ticket_sale": true,
      "passenger_drop": true
    },
    {
      "id": 1314,
      "name": "ÇAYIROVA SAYDİNG",
      "city": "KOCAELİ",
      "city_id": 41,
      "district": "GEBZE",
      "region": "marmara",
      "lat": 40.7689,
      "lng": 29.5708,
      "alt": 25.4,
      "code": "9702",
      "size": "large",
      "popularity": 0.9,
      "ticket_sale": true,
      "passenger_drop": true
    },
    {
      "id": 1135,
      "name": "İZMİT YHT",
      "city": "KOCAELİ",
      "city_id": 41,
      "district": "İZMİT",
      "region": "marmara",
      "lat": 40.7619,
      "lng": 29.9175,
      "alt": 1.1,
      "code": "1705",
      "size": "large",
      "popularity": 0.9,
      "ticket_sale": true,
      "passenger_drop": true
    },
    {
      "id": 3,
      "name": "ADAPAZARI",
      "city": "SAKARYA",
      "city_id": 54,
      "district": "ADAPAZARI",
      "region": "marmara",
      "lat": 40.7744,
      "lng": 30.3994,
      "alt": 30.4,
      "code": "1502",
      "size": "large",
      "popularity": 0.9,
      "ticket_sale": true,
      "passenger_drop": true
    },
    {
      "id": 4,
      "name": "ALİFUATPAŞA",
      "city": "SAKARYA",
      "city_id": 54,
      "district": "",
      "region": "marmara",
      "lat": 40.5358,
      "lng": 30.2936,
      "alt": 75.0,
      "code": "1508",
      "size": "large",
      "popularity": 0.9,
      "ticket_sale": true,
      "passenger_drop": true
    },
    {
      "id": 5,
      "name": "ARİFİYE",
      "city": "SAKARYA",
      "city_id": 54,
      "district": "ARİFİYE",
      "region": "marmara",
      "lat": 40.7133,
      "lng": 30.3561,
      "alt": 36.0,
      "code": "1512",
      "size": "large",
      "popularity": 0.9,
      "ticket_sale": true,
      "passenger_drop": true
    },
    {
      "id": 44,
      "name": "MİTHATPAŞA",
      "city": "SAKARYA",
      "city_id": 54,
      "district": "",
      "region": "marmara",
      "lat": 40.7589,
      "lng": 30.3803,
      "alt": 30.7,
      "code": "1601",
      "size": "large",
      "popularity": 0.9,
      "ticket_sale": true,
      "passenger_drop": true
    },
    {
      "id": 1141,
      "name": "PAMUKOVA YHT",
      "city": "SAKARYA",
      "city_id": 54,
      "district": "PAMUKOVA",
      "region": "marmara",
      "lat": 40.0,
      "lng": 29.0,
      "alt": 1110.2,
      "code": "1711",
      "size": "large",
      "popularity": 0.9,
      "ticket_sale": true,
      "passenger_drop": true
    },
    {
      "id": 69,
      "name": "SAPANCA",
      "city": "SAKARYA",
      "city_id": 54,
      "district": "",
      "region": "marmara",
      "lat": 40.7047,
      "lng": 30.1906,
      "alt": 36.8,
      "code": "1615",
      "size": "large",
      "popularity": 0.9,
      "ticket_sale": true,
      "passenger_drop": true
    },
    {
      "id": 1025,
      "name": "MURATLI",
      "city": "TEKİRDAĞ",
      "city_id": 59,
      "district": "",
      "region": "marmara",
      "lat": 41.1981,
      "lng": 27.4769,
      "alt": 68.0,
      "code": "8545",
      "size": "large",
      "popularity": 0.9,
      "ticket_sale": true,
      "passenger_drop": true
    },
    {
      "id": 1016,
      "name": "VELİMEŞE",
      "city": "TEKİRDAĞ",
      "city_id": 59,
      "district": "",
      "region": "marmara",
      "lat": 41.2478,
      "lng": 27.8864,
      "alt": 129.3,
      "code": "8562",
      "size": "large",
      "popularity": 0.9,
      "ticket_sale": true,
      "passenger_drop": true
    },
    {
      "id": 985,
      "name": "ÇERKEZKÖY",
      "city": "TEKİRDAĞ",
      "city_id": 59,
      "district": "ÇERKEZKÖY",
      "region": "marmara",
      "lat": 41.2806,
      "lng": 28.0094,
      "alt": 146.0,
      "code": "8513",
      "size": "large",
      "popularity": 0.9,
      "ticket_sale": true,
      "passenger_drop": true
    },
    {
      "id": 986,
      "name": "ÇORLU",
      "city": "TEKİRDAĞ",
      "city_id": 59,
      "district": "ÇORLU",
      "region": "marmara",
      "lat": 41.1786,
      "lng": 27.7786,
      "alt": 110.8,
      "code": "8514",
      "size": "large",
      "popularity": 0.9,
      "ticket_sale": true,
      "passenger_drop": true
    },
    {
      "id": 1331,
      "name": "ATAKÖY S HAT3",
      "city": "İSTANBUL",
      "city_id": 34,
      "district": "BAKIRKÖY",
      "region": "marmara",
      "lat": 40.9928,
      "lng": 28.9139,
      "alt": 9.1,
      "code": "9722",
      "size": "large",
      "popularity": 0.9,
      "ticket_sale": true,
      "passenger_drop": true
    },
    {
      "id": 1319,
      "name": "ATALAR SAYDİNG",
      "city": "İSTANBUL",
      "city_id": 34,
      "district": "",
      "region": "marmara",
      "lat": 40.7689,
      "lng": 29.5708,
      "alt": 25.4,
      "code": "9707",
      "size": "large",
      "popularity": 0.9,
      "ticket_sale": true,
      "passenger_drop": true
    },
    {
      "id": 1086,
      "name": "ISPARTAKULE",
      "city": "İSTANBUL",
      "city_id": 34,
      "district": "",
      "region": "marmara",
      "lat": 41.0633,
      "lng": 28.6994,
      "alt": 14.1,
      "code": "8527",
      "size": "large",
      "popularity": 0.9,
      "ticket_sale": true,
      "passenger_drop": true
    },
    {
      "id": 1002,
      "name": "KURFALLI",
      "city": "İSTANBUL",
      "city_id": 34,
      "district": "",
      "region": "marmara",
      "lat": 41.2367,
      "lng": 28.2039,
      "alt": 224.6,
      "code": "8539",
      "size": "large",
      "popularity": 0.9,
      "ticket_sale": true,
      "passenger_drop": true
    },
    {
      "id": 1316,
      "name": "TERSANE SAYDİNG",
      "city": "İSTANBUL",
      "city_id": 34,
      "district": "",
      "region": "marmara",
      "lat": 40.7689,
      "lng": 29.5708,
      "alt": 25.4,
      "code": "9704",
      "size": "large",
      "popularity": 0.9,
      "ticket_sale": true,
      "passenger_drop": true
    },
    {
      "id": 1315,
      "name": "TUZLA SAYDİNG",
      "city": "İSTANBUL",
      "city_id": 34,
      "district": "TUZLA",
      "region": "marmara",
      "lat": 40.7689,
      "lng": 29.5708,
      "alt": 25.4,
      "code": "9703",
      "size": "large",
      "popularity": 0.9,
      "ticket_sale": true,
      "passenger_drop": true
    },
    {
      "id": 1330,
      "name": "YEŞİLKÖY S HAT3",
      "city": "İSTANBUL",
      "city_id": 34,
      "district": "",
      "region": "marmara",
      "lat": 40.9928,
      "lng": 28.9139,
      "alt": 9.1,
      "code": "9724",
      "size": "large",
      "popularity": 0.9,
      "ticket_sale": true,
      "passenger_drop": true
    },
    {
      "id": 1318,
      "name": "YUNUS SAYDİNG",
      "city": "İSTANBUL",
      "city_id": 34,
      "district": "MALTEPE",
      "region": "marmara",
      "lat": 40.7689,
      "lng": 29.5708,
      "alt": 25.4,
      "code": "9706",
      "size": "large",
      "popularity": 0.9,
      "ticket_sale": true,
      "passenger_drop": true
    },
    {
      "id": 1329,
      "name": "ZEYTİNBURNU S HAT3",
      "city": "İSTANBUL",
      "city_id": 34,
      "district": "",
      "region": "marmara",
      "lat": 40.9928,
      "lng": 28.9139,
      "alt": 9.1,
      "code": "9720",
      "size": "large",
      "popularity": 0.9,
      "ticket_sale": true,
      "passenger_drop": true
    },
    {
      "id": 1085,
      "name": "ÇATALCA",
      "city": "İSTANBUL",
      "city_id": 34,
      "district": "",
      "region": "marmara",
      "lat": 41.1892,
      "lng": 28.4331,
      "alt": 34.1,
      "code": "8511",
      "size": "large",
      "popularity": 0.9,
      "ticket_sale": true,
      "passenger_drop": true
    },
    {
      "id": 1328,
      "name": "İSTANBUL(BAKIRKÖY)",
      "city": "İSTANBUL",
      "city_id": 34,
      "district": "BAKIRKÖY",
      "region": "marmara",
      "lat": 40.9928,
      "lng": 28.9139,
      "alt": 9.1,
      "code": "9721",
      "size": "large",
      "popularity": 0.9,
      "ticket_sale": true,
      "passenger_drop": true
    },
    {
      "id": 1323,
      "name": "İSTANBUL(BOSTANCI)",
      "city": "İSTANBUL",
      "city_id": 34,
      "district": "KADIKÖY",
      "region": "marmara",
      "lat": 40.7689,
      "lng": 29.5708,
      "alt": 25.4,
      "code": "9711",
      "size": "large",
      "popularity": 0.9,
      "ticket_sale": true,
      "passenger_drop": true
    },
    {
      "id": 992,
      "name": "İSTANBUL(HALKALI)",
      "city": "İSTANBUL",
      "city_id": 34,
      "district": "BAŞAKŞEHİR",
      "region": "marmara",
      "lat": 41.0186,
      "lng": 28.7667,
      "alt": 0.0,
      "code": "8524",
      "size": "large",
      "popularity": 0.9,
      "ticket_sale": true,
      "passenger_drop": true
    },
    {
      "id": 48,
      "name": "İSTANBUL(PENDİK)",
      "city": "İSTANBUL",
      "city_id": 34,
      "district": "PENDİK",
      "region": "marmara",
      "lat": 40.8797,
      "lng": 29.2308,
      "alt": 5.9,
      "code": "1609",
      "size": "large",
      "popularity": 0.9,
      "ticket_sale": true,
      "passenger_drop": true
    },
    {
      "id": 1325,
      "name": "İSTANBUL(SÖĞÜTLÜÇEŞME)",
      "city": "İSTANBUL",
      "city_id": 34,
      "district": "KADIKÖY",
      "region": "marmara",
      "lat": 41.0096,
      "lng": 29.0493,
      "alt": 83.5,
      "code": "9713",
      "size": "large",
      "popularity": 0.9,
      "ticket_sale": true,
      "passenger_drop": true
    },
    {
      "id": 1345,
      "name": "KM 331+985 ŞEFKAT BAŞ MAKAS",
      "city": "",
      "city_id": 0,
      "district": "",
      "region": "other",
      "lat": 38.5738,
      "lng": 38.9144,
      "alt": 0.0,
      "code": "5905",
      "size": "large",
      "popularity": 0.9,
      "ticket_sale": true,
      "passenger_drop": true
    },
    {
      "id": 895,
      "name": "ALAYUNT",
      "city": "KÜTAHYA",
      "city_id": 43,
      "district": "",
      "region": "other",
      "lat": 39.3958,
      "lng": 30.1058,
      "alt": 934.5,
      "code": "7507",
      "size": "large",
      "popularity": 0.9,
      "ticket_sale": true,
      "passenger_drop": true
    },
    {
      "id": 938,
      "name": "ALİKÖY",
      "city": "KÜTAHYA",
      "city_id": 43,
      "district": "",
      "region": "other",
      "lat": 39.5011,
      "lng": 29.5685,
      "alt": 847.3,
      "code": "7617",
      "size": "large",
      "popularity": 0.9,
      "ticket_sale": false,
      "passenger_drop": true
    },
    {
      "id": 1124,
      "name": "BALIKÖY",
      "city": "KÜTAHYA",
      "city_id": 43,
      "district": "",
      "region": "other",
      "lat": 39.5228,
      "lng": 29.0969,
      "alt": 437.9,
      "code": "7527",
      "size": "large",
      "popularity": 0.9,
      "ticket_sale": true,
      "passenger_drop": true
    },
    {
      "id": 902,
      "name": "DEMİRLİ",
      "city": "KÜTAHYA",
      "city_id": 43,
      "district": "",
      "region": "other",
      "lat": 39.5031,
      "lng": 29.3014,
      "alt": 673.1,
      "code": "7560",
      "size": "large",
      "popularity": 0.9,
      "ticket_sale": true,
      "passenger_drop": true
    },
    {
      "id": 899,
      "name": "DEĞİRMENÖZÜ",
      "city": "KÜTAHYA",
      "city_id": 43,
      "district": "",
      "region": "other",
      "lat": 39.2081,
      "lng": 30.3042,
      "alt": 1083.9,
      "code": "7557",
      "size": "large",
      "popularity": 0.9,
      "ticket_sale": true,
      "passenger_drop": true
    },
    {
      "id": 900,
      "name": "DEĞİRMİSAZ",
      "city": "KÜTAHYA",
      "city_id": 43,
      "district": "",
      "region": "other",
      "lat": 39.4856,
      "lng": 29.1889,
      "alt": 520.0,
      "code": "7558",
      "size": "large",
      "popularity": 0.9,
      "ticket_sale": true,
      "passenger_drop": true
    },
    {
      "id": 904,
      "name": "DUMLUPINAR",
      "city": "KÜTAHYA",
      "city_id": 43,
      "district": "",
      "region": "other",
      "lat": 38.8481,
      "lng": 29.9839,
      "alt": 1222.9,
      "code": "7565",
      "size": "large",
      "popularity": 0.9,
      "ticket_sale": true,
      "passenger_drop": true
    },
    {
      "id": 908,
      "name": "EMİRLER",
      "city": "KÜTAHYA",
      "city_id": 43,
      "district": "",
      "region": "other",
      "lat": 39.4925,
      "lng": 29.3622,
      "alt": 864.8,
      "code": "7569",
      "size": "large",
      "popularity": 0.9,
      "ticket_sale": true,
      "passenger_drop": true
    },
    {
      "id": 910,
      "name": "GÖKÇEDAĞ",
      "city": "KÜTAHYA",
      "city_id": 43,
      "district": "",
      "region": "other",
      "lat": 39.6117,
      "lng": 28.98,
      "alt": 368.0,
      "code": "7575",
      "size": "large",
      "popularity": 0.9,
      "ticket_sale": true,
      "passenger_drop": true
    },
    {
      "id": 916,
      "name": "GÜZELYURT",
      "city": "KÜTAHYA",
      "city_id": 43,
      "district": "",
      "region": "other",
      "lat": 39.5025,
      "lng": 29.6531,
      "alt": 1063.8,
      "code": "7583",
      "size": "large",
      "popularity": 0.9,
      "ticket_sale": true,
      "passenger_drop": true
    },
    {
      "id": 935,
      "name": "KÖPRÜÖREN",
      "city": "KÜTAHYA",
      "city_id": 43,
      "district": "",
      "region": "other",
      "lat": 39.4928,
      "lng": 29.7569,
      "alt": 1032.8,
      "code": "7613",
      "size": "large",
      "popularity": 0.9,
      "ticket_sale": true,
      "passenger_drop": true
    },
    {
      "id": 937,
      "name": "KÜTAHYA",
      "city": "KÜTAHYA",
      "city_id": 43,
      "district": "MERKEZ",
      "region": "other",
      "lat": 39.4211,
      "lng": 30.0003,
      "alt": 932.5,
      "code": "7615",
      "size": "large",
      "popularity": 0.9,
      "ticket_sale": true,
      "passenger_drop": true
    },
    {
      "id": 970,
      "name": "SABUNCUPINAR",
      "city": "KÜTAHYA",
      "city_id": 43,
      "district": "",
      "region": "other",
      "lat": 39.5622,
      "lng": 30.1906,
      "alt": 953.0,
      "code": "7652",
      "size": "large",
      "popularity": 0.9,
      "ticket_sale": true,
      "passenger_drop": true
    },
    {
      "id": 962,
      "name": "TAVŞANLI",
      "city": "KÜTAHYA",
      "city_id": 43,
      "district": "TAVŞANLI",
      "region": "other",
      "lat": 39.5408,
      "lng": 29.4867,
      "alt": 825.5,
      "code": "7666",
      "size": "large",
      "popularity": 0.9,
      "ticket_sale": true,
      "passenger_drop": true
    },
    {
      "id": 1404,
      "name": "RAZİ",
      "city": "TAHRAN",
      "city_id": 82,
      "district": "TAHRAN",
      "region": "other",
      "lat": 38.4933,
      "lng": 44.3392,
      "alt": 2013.9,
      "code": "5690",
      "size": "small",
      "popularity": 0.3,
      "ticket_sale": false,
      "passenger_drop": true
    }
  ],
  "yht_routes": [
    {
      "id": "yht_ankara_istanbul",
      "name": "Ankara-İstanbul YHT",
      "train_type": "yht",
      "travel_time_minutes": 270,
      "express_variant": {
        "name": "Ekspres YHT",
        "stops": [
          "ANKARA GAR",
          "ERYAMAN YHT",
          "ESKİŞEHİR",
          "İSTANBUL(PENDİK)"
        ],
        "travel_time_minutes": 245,
        "note": "Sabah 06:00 Ankara, 07:20 İstanbul kalkış"
      },
      "stops": [
        "ANKARA GAR",
        "ERYAMAN YHT",
        "POLATLI YHT",
        "ESKİŞEHİR",
        "BOZÜYÜK YHT",
        "BİLECİK YHT",
        "PAMUKOVA YHT",
        "ARİFİYE",
        "İZMİT YHT",
        "GEBZE",
        "İSTANBUL(PENDİK)",
        "İSTANBUL(BOSTANCI)",
        "İSTANBUL(SÖĞÜTLÜÇEŞME)",
        "İSTANBUL(BAKIRKÖY)",
        "İSTANBUL(HALKALI)"
      ],
      "regions": [
        "ic_anadolu",
        "marmara"
      ],
      "wagons": [
        "ekonomi",
        "business",
        "yemekli"
      ]
    },
    {
      "id": "yht_ankara_eskisehir",
      "name": "Ankara-Eskişehir YHT",
      "train_type": "yht",
      "travel_time_minutes": 81,
      "stops": [
        "ANKARA GAR",
        "ERYAMAN YHT",
        "POLATLI YHT",
        "ESKİŞEHİR"
      ],
      "regions": [
        "ic_anadolu",
        "marmara"
      ],
      "wagons": [
        "ekonomi",
        "business",
        "yemekli"
      ]
    },
    {
      "id": "yht_ankara_konya",
      "name": "Ankara-Konya YHT",
      "train_type": "yht",
      "travel_time_minutes": 105,
      "stops": [
        "ANKARA GAR",
        "ERYAMAN YHT",
        "POLATLI YHT",
        "SELÇUKLU YHT (KONYA)",
        "KONYA"
      ],
      "regions": [
        "ic_anadolu"
      ],
      "wagons": [
        "ekonomi",
        "business",
        "yemekli"
      ]
    },
    {
      "id": "yht_ankara_karaman",
      "name": "Ankara-Karaman YHT",
      "train_type": "yht",
      "travel_time_minutes": 159,
      "stops": [
        "ANKARA GAR",
        "ERYAMAN YHT",
        "POLATLI YHT",
        "SELÇUKLU YHT (KONYA)",
        "KONYA",
        "ÇUMRA",
        "KARAMAN"
      ],
      "regions": [
        "ic_anadolu"
      ],
      "wagons": [
        "ekonomi",
        "business",
        "yemekli"
      ]
    },
    {
      "id": "yht_istanbul_konya",
      "name": "İstanbul-Konya YHT",
      "train_type": "yht",
      "travel_time_minutes": 290,
      "stops": [
        "İSTANBUL(SÖĞÜTLÜÇEŞME)",
        "İSTANBUL(BOSTANCI)",
        "İSTANBUL(PENDİK)",
        "GEBZE",
        "İZMİT YHT",
        "ARİFİYE",
        "PAMUKOVA YHT",
        "BİLECİK YHT",
        "BOZÜYÜK YHT",
        "ESKİŞEHİR",
        "SELÇUKLU YHT (KONYA)",
        "KONYA"
      ],
      "regions": [
        "marmara",
        "ic_anadolu"
      ],
      "wagons": [
        "ekonomi",
        "business",
        "yemekli"
      ]
    },
    {
      "id": "yht_istanbul_karaman",
      "name": "İstanbul-Karaman YHT",
      "train_type": "yht",
      "travel_time_minutes": 395,
      "stops": [
        "İSTANBUL(HALKALI)",
        "İSTANBUL(BAKIRKÖY)",
        "İSTANBUL(SÖĞÜTLÜÇEŞME)",
        "İSTANBUL(BOSTANCI)",
        "İSTANBUL(PENDİK)",
        "GEBZE",
        "İZMİT YHT",
        "ARİFİYE",
        "BİLECİK YHT",
        "BOZÜYÜK YHT",
        "ESKİŞEHİR",
        "SELÇUKLU YHT (KONYA)",
        "KONYA",
        "ÇUMRA",
        "KARAMAN"
      ],
      "regions": [
        "marmara",
        "ic_anadolu"
      ],
      "wagons": [
        "ekonomi",
        "business",
        "yemekli"
      ]
    },
    {
      "id": "yht_eskisehir_istanbul",
      "name": "Eskişehir-İstanbul YHT",
      "train_type": "yht",
      "travel_time_minutes": 190,
      "stops": [
        "ESKİŞEHİR",
        "BOZÜYÜK YHT",
        "BİLECİK YHT",
        "PAMUKOVA YHT",
        "ARİFİYE",
        "İZMİT YHT",
        "GEBZE",
        "İSTANBUL(PENDİK)",
        "İSTANBUL(BOSTANCI)",
        "İSTANBUL(SÖĞÜTLÜÇEŞME)"
      ],
      "regions": [
        "marmara"
      ],
      "wagons": [
        "ekonomi",
        "business",
        "yemekli"
      ]
    },
    {
      "id": "yht_ankara_sivas",
      "name": "Ankara-Sivas YHT",
      "train_type": "yht",
      "travel_time_minutes": 160,
      "stops": [
        "ANKARA GAR",
        "ELMADAĞ YHT",
        "KIRIKKALE YHT",
        "YERKÖY YHT",
        "AKDAĞMADENİ YHT",
        "SORGUN YHT"
      ],
      "note": "Yıldızeli ve Sivas durakları GPS verisinde yok, Sivas şehri TCDD pair verisinde eksik",
      "regions": [
        "ic_anadolu"
      ],
      "wagons": [
        "ekonomi",
        "business",
        "yemekli"
      ]
    },
    {
      "id": "yht_sivas_istanbul",
      "name": "Sivas-İstanbul YHT",
      "train_type": "yht",
      "travel_time_minutes": 415,
      "stops": [
        "ANKARA GAR",
        "ESKİŞEHİR",
        "ARİFİYE",
        "İZMİT YHT",
        "İSTANBUL(PENDİK)",
        "İSTANBUL(SÖĞÜTLÜÇEŞME)"
      ],
      "note": "Sivas→Kırıkkale kısmı Ankara-Sivas YHT ile aynı, Ankara'dan İstanbul'a aktarmalı",
      "regions": [
        "ic_anadolu",
        "marmara"
      ],
      "wagons": [
        "ekonomi",
        "business",
        "yemekli"
      ]
    }
  ],
  "mainline_routes": [
    {
      "id": "izmir_mavi",
      "name": "İzmir Mavi Treni",
      "train_type": "anahat",
      "origin": "ANKARA GAR",
      "destination": "İZMİR (BASMANE)",
      "regions": [
        "ic_anadolu",
        "ege"
      ],
      "description": "Ankara'dan İzmir'e uzanan klasik hat. Afyon üzerinden geçer.",
      "key_cities": [
        "Ankara",
        "Eskişehir",
        "Afyon",
        "Manisa",
        "İzmir"
      ]
    },
    {
      "id": "konya_mavi",
      "name": "Konya Mavi Treni",
      "train_type": "anahat",
      "origin": "KONYA",
      "destination": "İZMİR (BASMANE)",
      "regions": [
        "ic_anadolu",
        "ege"
      ],
      "description": "Konya'dan İzmir'e. Afyon üzerinden geçer.",
      "key_cities": [
        "Konya",
        "Afyon",
        "Manisa",
        "İzmir"
      ]
    },
    {
      "id": "ege_ekspresi",
      "name": "Ege Ekspresi",
      "train_type": "anahat",
      "origin": "ESKİŞEHİR",
      "destination": "İZMİR (BASMANE)",
      "regions": [
        "marmara",
        "ege"
      ],
      "description": "Eskişehir'den İzmir'e. Kütahya ve Afyon üzerinden geçer.",
      "key_cities": [
        "Eskişehir",
        "Kütahya",
        "Afyon",
        "Manisa",
        "İzmir"
      ]
    },
    {
      "id": "4eylul_mavi",
      "name": "4 Eylül Mavi Treni",
      "train_type": "anahat",
      "origin": "ANKARA GAR",
      "destination": "MALATYA",
      "regions": [
        "ic_anadolu",
        "dogu_anadolu"
      ],
      "description": "Ankara'dan Malatya'ya. Sivas üzerinden geçer.",
      "key_cities": [
        "Ankara",
        "Kırıkkale",
        "Kayseri",
        "Sivas",
        "Malatya"
      ]
    },
    {
      "id": "pamukkale_ekspresi",
      "name": "Pamukkale Ekspresi",
      "train_type": "anahat",
      "origin": "DENİZLİ",
      "destination": "ESKİŞEHİR",
      "regions": [
        "ege",
        "marmara"
      ],
      "description": "Denizli'den Eskişehir'e. Afyon üzerinden geçer.",
      "key_cities": [
        "Denizli",
        "Afyon",
        "Eskişehir"
      ]
    },
    {
      "id": "dogu_ekspresi",
      "name": "Doğu Ekspresi",
      "train_type": "anahat",
      "origin": "ANKARA GAR",
      "destination": "KARS",
      "regions": [
        "ic_anadolu",
        "dogu_anadolu"
      ],
      "description": "Türkiye'nin en ikonik tren yolculuğu. Ankara'dan Kars'a 24 saat.",
      "key_cities": [
        "Ankara",
        "Kırıkkale",
        "Kayseri",
        "Sivas",
        "Erzincan",
        "Erzurum",
        "Kars"
      ],
      "special": true,
      "note": "Sosyal medyada viral olan efsanevi rota. Kış manzaraları, Doğu'nun büyüsü."
    },
    {
      "id": "vangolu_ekspresi",
      "name": "Van Gölü Ekspresi",
      "train_type": "anahat",
      "origin": "ANKARA GAR",
      "destination": "TATVAN",
      "regions": [
        "ic_anadolu",
        "dogu_anadolu"
      ],
      "description": "Ankara'dan Van Gölü kıyısına. Elazığ ve Muş üzerinden geçer.",
      "key_cities": [
        "Ankara",
        "Kayseri",
        "Sivas",
        "Elazığ",
        "Muş",
        "Tatvan"
      ]
    },
    {
      "id": "guney_kurtalan",
      "name": "Güney Kurtalan Ekspresi",
      "train_type": "anahat",
      "origin": "ANKARA GAR",
      "destination": "KURTALAN",
      "regions": [
        "ic_anadolu",
        "dogu_anadolu",
        "guneydogu"
      ],
      "description": "Ankara'dan Siirt Kurtalan'a. Güneydoğu hattı.",
      "key_cities": [
        "Ankara",
        "Kayseri",
        "Sivas",
        "Malatya",
        "Elazığ",
        "Diyarbakır",
        "Kurtalan"
      ]
    },
    {
      "id": "erciyes_ekspresi",
      "name": "Erciyes Ekspresi",
      "train_type": "anahat",
      "origin": "KAYSERİ",
      "destination": "ADANA",
      "regions": [
        "ic_anadolu",
        "akdeniz"
      ],
      "description": "Kayseri'den Adana'ya. Torosları aşan hat.",
      "key_cities": [
        "Kayseri",
        "Niğde",
        "Adana"
      ]
    },
    {
      "id": "6eylul_ekspresi",
      "name": "6 Eylül Ekspresi",
      "train_type": "anahat",
      "origin": "İZMİR (BASMANE)",
      "destination": "BANDIRMA",
      "regions": [
        "ege",
        "marmara"
      ],
      "description": "İzmir'den Bandırma'ya. Manisa ve Balıkesir üzerinden geçer.",
      "key_cities": [
        "İzmir",
        "Manisa",
        "Akhisar",
        "Balıkesir",
        "Bandırma"
      ]
    },
    {
      "id": "ankara_ekspresi",
      "name": "Ankara Ekspresi",
      "train_type": "anahat",
      "origin": "ANKARA GAR",
      "destination": "İSTANBUL(HALKALI)",
      "regions": [
        "ic_anadolu",
        "marmara"
      ],
      "description": "Klasik Ankara-İstanbul gece treni. Konvansiyonel hat.",
      "key_cities": [
        "Ankara",
        "Eskişehir",
        "Bilecik",
        "İzmit",
        "İstanbul"
      ],
      "note": "YHT'nin konvansiyonel alternatifi. Gece yolculuğu."
    },
    {
      "id": "17eylul_ekspresi",
      "name": "17 Eylül Ekspresi",
      "train_type": "anahat",
      "origin": "BANDIRMA",
      "destination": "İZMİR (BASMANE)",
      "regions": [
        "marmara",
        "ege"
      ],
      "description": "Bandırma'dan İzmir'e. 6 Eylül'ün ters yönü.",
      "key_cities": [
        "Bandırma",
        "Balıkesir",
        "Akhisar",
        "Manisa",
        "İzmir"
      ]
    },
    {
      "id": "guller_ekspresi",
      "name": "Güller Ekspresi",
      "train_type": "anahat",
      "origin": "İZMİR (BASMANE)",
      "destination": "ISPARTA",
      "regions": [
        "ege",
        "akdeniz"
      ],
      "description": "İzmir'den Göller Bölgesi'ne. Isparta gül bahçeleri.",
      "key_cities": [
        "İzmir",
        "Aydın",
        "Denizli",
        "Burdur",
        "Isparta"
      ]
    },
    {
      "id": "toros_ekspresi",
      "name": "Toros Ekspresi",
      "train_type": "anahat",
      "origin": "KONYA",
      "destination": "ADANA",
      "regions": [
        "ic_anadolu",
        "akdeniz"
      ],
      "description": "Konya'dan Adana'ya Toros dağlarını aşarak.",
      "key_cities": [
        "Konya",
        "Karaman",
        "Ereğli",
        "Adana"
      ]
    },
    {
      "id": "goller_ekspresi",
      "name": "Göller Ekspresi",
      "train_type": "anahat",
      "origin": "İZMİR (BASMANE)",
      "destination": "ISPARTA",
      "regions": [
        "ege",
        "akdeniz"
      ],
      "description": "İzmir'den Göller Bölgesi'ne alternatif hat.",
      "key_cities": [
        "İzmir",
        "Manisa",
        "Afyon",
        "Burdur",
        "Isparta"
      ]
    }
  ],
  "game_progression": {
    "unlock_order": [
      "ege",
      "marmara",
      "ic_anadolu",
      "akdeniz",
      "karadeniz",
      "dogu_anadolu",
      "guneydogu"
    ],
    "unlock_conditions": {
      "ege": {
        "reputation": 0,
        "money": 0,
        "quests": [],
        "note": "Başlangıç bölgesi, ücretsiz"
      },
      "marmara": {
        "reputation": 2.0,
        "money": 2000,
        "quests": [
          "ege_complete"
        ],
        "note": "Ege hikayesini tamamla"
      },
      "ic_anadolu": {
        "reputation": 2.5,
        "money": 3000,
        "quests": [
          "marmara_complete"
        ],
        "note": "Marmara hikayesini tamamla"
      },
      "akdeniz": {
        "reputation": 3.0,
        "money": 4000,
        "quests": [
          "ic_anadolu_complete"
        ],
        "note": "İç Anadolu hikayesini tamamla"
      },
      "karadeniz": {
        "reputation": 3.5,
        "money": 5000,
        "quests": [
          "akdeniz_complete"
        ],
        "note": "Akdeniz hikayesini tamamla"
      },
      "dogu_anadolu": {
        "reputation": 4.0,
        "money": 7000,
        "quests": [
          "karadeniz_complete"
        ],
        "note": "Karadeniz hikayesini tamamla"
      },
      "guneydogu": {
        "reputation": 4.0,
        "money": 7000,
        "quests": [
          "dogu_complete"
        ],
        "note": "Doğu Anadolu hikayesini tamamla"
      }
    }
  }
}